__time,/ground_truth/pose/pose/position/x,/ground_truth/pose/pose/position/y,/ground_truth/pose/pose/position/z,/ground_truth/pose/pose/orientation/yaw
1719597316.633284,3.594045271,0.066618131,-0.001105199,0.217018423
1719597316.634096,3.594272483,0.066667905,-0.001104948,0.21710641
1719597316.635083,3.594499482,0.066713675,-0.001104996,0.21719481
1719597316.636047,3.594726805,0.066757398,-0.001105199,0.217282988
1719597316.637078,3.594954715,0.066800798,-0.001105462,0.217370906
1719597316.638105,3.595183401,0.066845054,-0.001105715,0.217458536
1719597316.639029,3.595413015,0.066890871,-0.001105903,0.217545838
1719597316.640033,3.595644861,0.066936275,-0.001106239,0.217632836
1719597316.641037,3.595880198,0.066985739,-0.001107379,0.217725503
1719597316.642029,3.596117989,0.067041147,-0.001109108,0.217818669
1719597316.643023,3.596357665,0.067100689,-0.00111121,0.217911552
1719597316.643988,3.596598849,0.067162423,-0.001113529,0.218004009
1719597316.645021,3.596841237,0.06722483,-0.001115949,0.218095964
1719597316.645991,3.597084549,0.067286861,-0.001118383,0.218187354
1719597316.64702,3.597328507,0.067347868,-0.001120757,0.218278116
1719597316.647983,3.597572841,0.067407522,-0.001123002,0.218368187
1719597316.649009,3.597817288,0.067465727,-0.00112506,0.218457506
1719597316.649978,3.598061605,0.067522552,-0.001126871,0.218546018
1719597316.651011,3.598305585,0.067578143,-0.001128382,0.218633658
1719597316.651978,3.598547282,0.067636022,-0.001129729,0.218720614
1719597316.653022,3.598785536,0.067690086,-0.001131679,0.218812235
1719597316.654059,3.599021223,0.06774028,-0.001134033,0.218906508
1719597316.655108,3.599255476,0.067787248,-0.001136554,0.219000396
1719597316.65609,3.599488769,0.067832682,-0.001139076,0.219093269
1719597316.657026,3.59972136,0.067878044,-0.00114148,0.219185101
1719597316.658006,3.599953478,0.067924273,-0.001143675,0.219275853
1719597316.659011,3.600185343,0.067971923,-0.001145588,0.219365524
1719597316.659983,3.600417161,0.068021249,-0.001147154,0.21945415
1719597316.661009,3.600649125,0.068072277,-0.001148313,0.219541774
1719597316.661992,3.600881413,0.068124862,-0.001149012,0.21962842
1719597316.663056,3.601114177,0.068178768,-0.001149204,0.219714107
1719597316.66409,3.601348832,0.068230782,-0.001149103,0.219799127
1719597316.665031,3.601586696,0.06828574,-0.001149431,0.219889749
1719597316.666046,3.601826673,0.068345665,-0.001149981,0.219980462
1719597316.667039,3.602068162,0.068408783,-0.001150538,0.220070508
1719597316.667996,3.602310778,0.068473206,-0.001150957,0.220159788
1719597316.669049,3.602554224,0.068537518,-0.001151138,0.220248271
1719597316.670034,3.602796378,0.068604466,-0.001151193,0.220336362
1719597316.671064,3.603035979,0.068666904,-0.001151908,0.220429498
1719597316.672006,3.603273819,0.068724195,-0.001153089,0.220525541
1719597316.673069,3.603510916,0.068776745,-0.001154504,0.220621309
1719597316.674001,3.603747578,0.068826285,-0.001155991,0.220716111
1719597316.675032,3.603983936,0.068874344,-0.001157434,0.220809717
1719597316.676045,3.604220091,0.068922081,-0.001158742,0.220902041
1719597316.677052,3.604456126,0.068970301,-0.00115984,0.220993052
1719597316.678034,3.604692127,0.069019496,-0.001160662,0.22108275
1719597316.679013,3.604928181,0.069069908,-0.001161147,0.221171152
1719597316.680043,3.605164373,0.069121591,-0.001161241,0.221258288
1719597316.68106,3.605400782,0.069174469,-0.001160895,0.221344189
1719597316.682078,3.605637479,0.069228378,-0.001160063,0.221428884
1719597316.683036,3.605874522,0.069283114,-0.001158704,0.2215124
1719597316.684128,3.606111956,0.069338455,-0.001156782,0.221594751
1719597316.685079,3.606349812,0.069394189,-0.001154264,0.221675951
1719597316.686071,3.606588105,0.069450125,-0.001151125,0.221756005
1719597316.68704,3.606826839,0.069506107,-0.00114734,0.221834913
1719597316.688084,3.60706403,0.069566021,-0.001143079,0.221913231
1719597316.689035,3.607299887,0.069619745,-0.001139495,0.2219971
1719597316.690097,3.60753676,0.069671913,-0.001137209,0.222090727
1719597316.691036,3.607774664,0.069725342,-0.001135834,0.222185344
1719597316.692106,3.608013412,0.069780017,-0.001135049,0.222279472
1719597316.693104,3.608252826,0.069835578,-0.00113465,0.222372964
1719597316.694094,3.608492778,0.069891648,-0.001134503,0.222465791
1719597316.695116,3.608733169,0.069947926,-0.001134517,0.222557917
1719597316.696117,3.608973912,0.070004193,-0.00113462,0.222649297
1719597316.697172,3.609214924,0.070060306,-0.001134751,0.222739882
1719597316.698125,3.609456129,0.070116179,-0.001134855,0.222829619
1719597316.699114,3.609697454,0.070171773,-0.001134878,0.222918457
1719597316.700027,3.609938832,0.070227078,-0.001134769,0.223006346
1719597316.701068,3.610180205,0.07028211,-0.001134479,0.223093243
1719597316.702041,3.610421522,0.070336896,-0.00113396,0.223179111
1719597316.703038,3.610662744,0.07039147,-0.001133164,0.223263919
1719597316.704071,3.61090384,0.07044587,-0.00113205,0.223347645
1719597316.705041,3.611144788,0.07050013,-0.001130574,0.223430275
1719597316.706075,3.611385578,0.070554281,-0.001128701,0.223511802
1719597316.70704,3.611626207,0.070608348,-0.001126394,0.223592226
1719597316.708071,3.61186668,0.07066235,-0.001123624,0.223671555
1719597316.70904,3.61210517,0.070719779,-0.001120556,0.22375018
1719597316.710059,3.61234064,0.070774174,-0.001118009,0.223833711
1719597316.711051,3.612574094,0.070825249,-0.001115816,0.223920266
1719597316.712088,3.612806731,0.070873451,-0.001113772,0.224006796
1719597316.713135,3.613039078,0.070920262,-0.001111744,0.224092598
1719597316.714005,3.613271418,0.070967002,-0.001109646,0.224177644
1719597316.715052,3.613503962,0.071014558,-0.001107422,0.224261982
1719597316.716007,3.613736888,0.07106343,-0.001105031,0.224345659
1719597316.717018,3.613970342,0.07111383,-0.001102441,0.224428732
1719597316.718044,3.614205644,0.071163376,-0.00109988,0.224511302
1719597316.719057,3.614444083,0.071216327,-0.001098023,0.224599278
1719597316.72001,3.614684637,0.071274554,-0.001096679,0.224687724
1719597316.721047,3.61492673,0.071336347,-0.001095657,0.224776026
1719597316.722061,3.615169996,0.071399842,-0.001094828,0.224864128
1719597316.723026,3.615414161,0.071463586,-0.001094103,0.22495198
1719597316.724089,3.615658981,0.071526589,-0.001093417,0.225039509
1719597316.725035,3.615904229,0.071588258,-0.001092716,0.225126619
1719597316.726061,3.61614969,0.071648309,-0.001091954,0.2252132
1719597316.72707,3.616395162,0.071706687,-0.001091085,0.225299136
1719597316.728028,3.616640465,0.071763498,-0.001090066,0.225384321
1719597316.729096,3.616885442,0.071818943,-0.001088856,0.225468662
1719597316.730054,3.617129964,0.071873275,-0.001087413,0.225552083
1719597316.731184,3.617373935,0.07192676,-0.001085699,0.225634531
1719597316.732044,3.617615591,0.071982573,-0.001083877,0.225716165
1719597316.73307,3.617853904,0.072035075,-0.001082692,0.225802236
1719597316.734106,3.618089767,0.07208436,-0.00108197,0.225891061
1719597316.73512,3.6183243,0.072131038,-0.001081501,0.225979765
1719597316.736111,3.61855801,0.072176617,-0.001081141,0.226067695
1719597316.737129,3.618791188,0.072222401,-0.001080796,0.226154846
1719597316.73815,3.619024078,0.072269241,-0.001080397,0.226241281
1719597316.739107,3.619256896,0.072317605,-0.001079892,0.226327073
1719597316.740069,3.61948984,0.072367672,-0.001079235,0.226412299
1719597316.741092,3.619723086,0.07241941,-0.001078387,0.226497032
1719597316.742073,3.619956785,0.072472657,-0.001077314,0.22658134
1719597316.743034,3.62019107,0.072527153,-0.001075986,0.226665264
1719597316.74406,3.620427221,0.072580062,-0.001074623,0.226748907
1719597316.745039,3.620666519,0.072635636,-0.001073909,0.226838116
1719597316.74605,3.620911872,0.072688088,-0.001074394,0.226927742
1719597316.747033,3.621160566,0.072741359,-0.001075614,0.227016652
1719597316.748003,3.621411146,0.072796027,-0.001077261,0.227104709
1719597316.749049,3.621658253,0.072859529,-0.001079868,0.227192048
1719597316.750109,3.621903631,0.072926505,-0.001083037,0.227278896
1719597316.751091,3.622148047,0.072993962,-0.001086523,0.227365485
1719597316.752045,3.622391841,0.073060123,-0.00109017,0.227451809
1719597316.753018,3.622635134,0.073124088,-0.00109386,0.227537785
1719597316.754059,3.622877935,0.073185572,-0.001097497,0.22762333
1719597316.755063,3.6231185,0.073247665,-0.001101184,0.22770854
1719597316.756042,3.623355855,0.073304736,-0.001105611,0.22779842
1719597316.757038,3.623590843,0.073357095,-0.001110556,0.227891177
1719597316.758014,3.623824587,0.073405585,-0.00111576,0.227983768
1719597316.759047,3.624057561,0.073452065,-0.00112103,0.228075485
1719597316.760015,3.624290009,0.073498195,-0.001126223,0.22816627
1719597316.761074,3.624522146,0.073545108,-0.001131223,0.228256092
1719597316.76205,3.624754185,0.073593479,-0.001135928,0.228344909
1719597316.763028,3.624986333,0.073643629,-0.001140245,0.228432687
1719597316.764059,3.625218786,0.073695623,-0.001144089,0.228519405
1719597316.765093,3.625451718,0.073749345,-0.00114738,0.228605047
1719597316.766094,3.62568662,0.073801357,-0.001150294,0.228689986
1719597316.767096,3.625924776,0.073856799,-0.00115354,0.228780476
1719597316.768081,3.62616509,0.073917742,-0.001156886,0.228870986
1719597316.769031,3.626406999,0.073982329,-0.001160095,0.228960661
1719597316.770076,3.626650149,0.074048583,-0.001162994,0.229049381
1719597316.771045,3.626894267,0.074114995,-0.001165464,0.229137107
1719597316.772119,3.627139103,0.07418057,-0.001167414,0.229223816
1719597316.773044,3.627382497,0.074248443,-0.001168961,0.22930992
1719597316.774123,3.62762326,0.074311551,-0.0011709,0.229400841
1719597316.775195,3.62786216,0.074369554,-0.00117303,0.229494614
1719597316.77625,3.628100249,0.074422948,-0.001175115,0.229587972
1719597316.77711,3.628337862,0.074473511,-0.001176988,0.229680189
1719597316.778119,3.628575085,0.074522937,-0.001178541,0.229771257
1719597316.779105,3.628811978,0.07457244,-0.001179695,0.229861198
1719597316.780053,3.62904861,0.0746228,-0.001180388,0.229950019
1719597316.781085,3.629285068,0.074674454,-0.001180569,0.230037737
1719597316.78205,3.629521447,0.074727577,-0.001180196,0.230124376
1719597316.783306,3.629757846,0.074782159,-0.001179233,0.230209968
1719597316.784258,3.629994364,0.074838055,-0.001177649,0.230294544
1719597316.785114,3.630231092,0.074895046,-0.001175419,0.230378125
1719597316.786118,3.630468113,0.07495287,-0.001172523,0.230460721
1719597316.787071,3.630705492,0.075011264,-0.001168946,0.230542324
1719597316.788183,3.630944631,0.075066856,-0.001164938,0.230623226
1719597316.789079,3.631186841,0.075124775,-0.001161281,0.2307097
1719597316.790157,3.631430948,0.075187324,-0.001157787,0.2307962
1719597316.791078,3.631674344,0.075256589,-0.001154465,0.230882478
1719597316.792138,3.631915628,0.075323882,-0.001152062,0.230974126
1719597316.793167,3.632155502,0.075387543,-0.001150354,0.231069203
1719597316.794296,3.632394983,0.075447077,-0.001149098,0.23116441
1719597316.795249,3.632634339,0.075503599,-0.001148137,0.231258994
1719597316.796166,3.632873646,0.075558256,-0.001147367,0.231352732
1719597316.797166,3.633112941,0.075611979,-0.001146709,0.23144552
1719597316.798081,3.633352241,0.075665471,-0.001146102,0.231537307
1719597316.799152,3.633591571,0.075719213,-0.00114549,0.231628058
1719597316.800144,3.633830955,0.075773503,-0.001144824,0.231717759
1719597316.801108,3.634070425,0.075828492,-0.001144054,0.231806406
1719597316.802177,3.634310011,0.075884215,-0.001143136,0.231894006
1719597316.803149,3.634549747,0.075940631,-0.001142024,0.231980566
1719597316.80419,3.634789661,0.075997646,-0.001140678,0.232066095
1719597316.805117,3.635029778,0.076055138,-0.001139056,0.232150599
1719597316.806156,3.635270114,0.076112976,-0.001137122,0.232234084
1719597316.807104,3.635510682,0.076171034,-0.00113484,0.232316552
1719597316.808127,3.635751486,0.076229198,-0.001132178,0.232398001
1719597316.809125,3.635992525,0.076287373,-0.001129107,0.232478432
1719597316.810122,3.636233792,0.076345484,-0.0011256,0.232557841
1719597316.811131,3.636473346,0.076407141,-0.001121826,0.232636666
1719597316.812092,3.636710177,0.076465527,-0.001118629,0.232720533
1719597316.81304,3.63694524,0.076520389,-0.001115847,0.232807657
1719597316.814086,3.63717973,0.076572143,-0.001113272,0.23289484
1719597316.815347,3.637414139,0.076622286,-0.001110767,0.232981283
1719597316.816078,3.637649949,0.076669776,-0.001108509,0.233066997
1719597316.817113,3.637888503,0.076720075,-0.00110715,0.233158
1719597316.818148,3.638128807,0.076775825,-0.00110647,0.233249227
1719597316.819085,3.638370357,0.076835774,-0.001106256,0.233340058
1719597316.82021,3.638612874,0.076898307,-0.00110636,0.23343047
1719597316.821081,3.638856171,0.076962065,-0.001106679,0.233520462
1719597316.82214,3.639100092,0.07702604,-0.001107133,0.233610006
1719597316.823144,3.639344489,0.077089545,-0.001107658,0.233699047
1719597316.824151,3.639589215,0.07715216,-0.001108191,0.233787505
1719597316.825146,3.639834128,0.077213676,-0.001108678,0.233875291
1719597316.826133,3.64007909,0.077274043,-0.001109061,0.233962315
1719597316.827072,3.640323973,0.07733332,-0.001109287,0.234048489
1719597316.828143,3.640568668,0.077391638,-0.001109303,0.234133738
1719597316.829065,3.640813082,0.077449164,-0.001109056,0.234218
1719597316.830094,3.641057144,0.077506078,-0.001108499,0.234301228
1719597316.831093,3.641300804,0.077562553,-0.001107584,0.234383391
1719597316.832129,3.641544034,0.077618743,-0.00110627,0.234464474
1719597316.833054,3.641785004,0.077678024,-0.001104712,0.234544768
1719597316.834077,3.642022769,0.077734157,-0.0011037,0.234629681
1719597316.835053,3.642258267,0.077787138,-0.001103054,0.234717608
1719597316.836051,3.642492697,0.07783746,-0.001102559,0.234805509
1719597316.837032,3.642726595,0.077886585,-0.00110207,0.234892641
1719597316.838234,3.642960254,0.07793582,-0.001101491,0.234978983
1719597316.83908,3.643193902,0.077986033,-0.001100756,0.235064602
1719597316.840105,3.643427741,0.078037707,-0.001099813,0.235149564
1719597316.841041,3.643661949,0.07809103,-0.001098622,0.235233934
1719597316.842106,3.64389792,0.07814348,-0.0010974,0.235317839
1719597316.843122,3.644136939,0.078199438,-0.001096826,0.235407224
1719597316.844137,3.644377986,0.078260788,-0.001096701,0.23549712
1719597316.845101,3.644620538,0.078325811,-0.001096826,0.235586909
1719597316.846212,3.644864264,0.078392607,-0.001097067,0.235676503
1719597316.847155,3.645108881,0.078459741,-0.001097329,0.235765876
1719597316.848085,3.645354191,0.078526153,-0.001097546,0.23585489
1719597316.849169,3.645599992,0.078591263,-0.001097661,0.235943493
1719597316.850134,3.645846079,0.078654784,-0.001097623,0.236031576
1719597316.851077,3.646092266,0.078716646,-0.001097385,0.23611901
1719597316.85216,3.646338378,0.078776947,-0.001096903,0.23620568
1719597316.85308,3.646584261,0.078835883,-0.001096132,0.236291484
1719597316.854148,3.646829788,0.078893703,-0.001095033,0.236376343
1719597316.855219,3.647074857,0.078950673,-0.001093565,0.236460194
1719597316.856083,3.647317636,0.079010077,-0.00109189,0.236543229
1719597316.857159,3.647557166,0.079066043,-0.001090772,0.236630658
1719597316.858186,3.647794303,0.079118763,-0.001090038,0.23672096
1719597316.859075,3.648030186,0.079168828,-0.001089475,0.23681116
1719597316.86014,3.648265322,0.079217737,-0.001088944,0.236900522
1719597316.861082,3.648499984,0.079266819,-0.00108835,0.236989032
1719597316.862192,3.648734399,0.079316947,-0.001087628,0.237076756
1719597316.863099,3.648968775,0.079368602,-0.001086729,0.237163764
1719597316.864038,3.649203303,0.07942197,-0.001085611,0.237250128
1719597316.865083,3.649438152,0.079477028,-0.00108424,0.237335925
1719597316.866021,3.649673474,0.079533604,-0.001082588,0.237421211
1719597316.867054,3.649910632,0.079588867,-0.001080876,0.23750611
1719597316.868029,3.65015087,0.07964714,-0.001079792,0.237596522
1719597316.869062,3.650393126,0.079710303,-0.001079145,0.237687476
1719597316.870049,3.650636829,0.079776683,-0.001078743,0.237778337
1719597316.871064,3.650881625,0.079844432,-0.001078452,0.237868995
1719597316.872072,3.651127245,0.079912131,-0.001078185,0.237959355
1719597316.873039,3.651373463,0.079978848,-0.001077876,0.238049331
1719597316.874077,3.651620056,0.080044066,-0.00107747,0.238138835
1719597316.875059,3.651866814,0.080107564,-0.001076922,0.23822775
1719597316.876082,3.652113545,0.080169341,-0.001076186,0.238315958
1719597316.87705,3.652355426,0.080237099,-0.00107598,0.238403553
1719597316.878087,3.652593188,0.080308789,-0.001076167,0.23849071
1719597316.879238,3.652831179,0.080368752,-0.001078021,0.238582161
1719597316.880218,3.653068709,0.080421424,-0.001081031,0.238676617
1719597316.88108,3.653306102,0.080469354,-0.001084786,0.238771234
1719597316.88215,3.653543364,0.080515356,-0.00108902,0.238865131
1719597316.883207,3.653780411,0.08056158,-0.001093554,0.238958111
1719597316.884109,3.654017051,0.080609465,-0.00109825,0.239050031
1719597316.885192,3.654253566,0.080659358,-0.001102989,0.23914048
1719597316.886319,3.654490061,0.080711748,-0.001107666,0.2392298
1719597316.887082,3.654726655,0.080766658,-0.001112181,0.239318111
1719597316.888144,3.65496348,0.080823815,-0.001116442,0.239405432
1719597316.889067,3.655200663,0.08088281,-0.00112036,0.23949176
1719597316.890085,3.655438307,0.080943193,-0.001123851,0.239577091
1719597316.891061,3.655677871,0.08100129,-0.00112708,0.239661795
1719597316.892051,3.655920506,0.081062211,-0.001130756,0.23975217
1719597316.893012,3.65616503,0.081127992,-0.001134636,0.239842666
1719597316.894058,3.656410837,0.081196821,-0.001138475,0.239932394
1719597316.895018,3.656655584,0.081270473,-0.001142278,0.240021657
1719597316.896024,3.656898132,0.081340623,-0.001146765,0.240115728
1719597316.897062,3.657139177,0.08140618,-0.001151684,0.240212828
1719597316.898,3.657379752,0.081467007,-0.001156752,0.2403096
1719597316.899066,3.657620152,0.081524467,-0.001161765,0.24040521
1719597316.900001,3.65786039,0.081580053,-0.001166579,0.240499614
1719597316.901056,3.658100445,0.081634921,-0.001171081,0.240592806
1719597316.901999,3.658340312,0.081689881,-0.001175176,0.240684758
1719597316.903013,3.658580002,0.081745457,-0.001178781,0.240775445
1719597316.904022,3.658819547,0.081801947,-0.001181823,0.240864857
1719597316.905072,3.659058992,0.081859469,-0.001184234,0.240952993
1719597316.906003,3.65929839,0.081918015,-0.001185953,0.241039863
1719597316.907062,3.659537799,0.081977493,-0.001186927,0.241125481
1719597316.908,3.659777276,0.082037759,-0.001187107,0.241209869
1719597316.909056,3.660016871,0.082098651,-0.001186455,0.241293055
1719597316.910031,3.660256626,0.082160004,-0.001184938,0.241375071
1719597316.911031,3.660496582,0.08222163,-0.001182529,0.241455909
1719597316.912087,3.660738216,0.082279956,-0.001179469,0.241535903
1719597316.913033,3.660980662,0.082344711,-0.001176746,0.241622051
1719597316.914105,3.661221721,0.082410839,-0.001175097,0.241714518
1719597316.915051,3.661461776,0.082476432,-0.001174174,0.241810655
1719597316.916035,3.661701786,0.082540014,-0.001173645,0.241906853
1719597316.917014,3.661942035,0.082601795,-0.001173297,0.242002234
1719597316.918064,3.662182532,0.082662396,-0.001173004,0.242096783
1719597316.919045,3.662423249,0.082722332,-0.001172683,0.242190516
1719597316.920031,3.662664176,0.082781944,-0.001172272,0.242283341
1719597316.92113,3.662905305,0.082841494,-0.00117172,0.242375187
1719597316.92203,3.663146633,0.082901156,-0.00117098,0.242465998
1719597316.923062,3.66338816,0.082961033,-0.001170008,0.242555741
1719597316.924052,3.663629885,0.083021178,-0.001168764,0.242644395
1719597316.925032,3.663871806,0.083081594,-0.001167209,0.242731945
1719597316.926057,3.664113926,0.083142259,-0.001165309,0.242818378
1719597316.927019,3.664356243,0.083203125,-0.00116303,0.242903687
1719597316.928056,3.664598755,0.083264139,-0.001160342,0.242987863
1719597316.929029,3.664841458,0.083325242,-0.001157216,0.243070903
1719597316.930058,3.665084346,0.083386379,-0.001153631,0.243152804
1719597316.931024,3.665327411,0.083447501,-0.001149563,0.243233567
1719597316.932085,3.665570645,0.083508567,-0.001144997,0.243313194
1719597316.933016,3.665812048,0.083573295,-0.001140106,0.243392166
1719597316.934183,3.666050706,0.083634688,-0.001135755,0.243476041
1719597316.9351,3.666287547,0.083692603,-0.001131792,0.243563239
1719597316.936067,3.666523791,0.08374743,-0.001128019,0.243650497
1719597316.937078,3.666759941,0.083800644,-0.001124306,0.243736956
1719597316.938012,3.666996227,0.083853621,-0.001120577,0.24382257
1719597316.939095,3.667232809,0.083907298,-0.001116784,0.243907386
1719597316.940016,3.667471069,0.083959935,-0.001113151,0.243991457
1719597316.941085,3.667712238,0.084016179,-0.001110352,0.244080775
1719597316.942021,3.667955292,0.084078054,-0.001108192,0.244170388
1719597316.943034,3.668199714,0.084143963,-0.001106478,0.24425968
1719597316.944076,3.66844521,0.084212084,-0.00110508,0.244348633
1719597316.945012,3.668691568,0.084280949,-0.001103908,0.244437237
1719597316.946042,3.668938602,0.084349517,-0.001102895,0.244525448
1719597316.94706,3.669186128,0.084417116,-0.001101987,0.244613194
1719597316.94802,3.669433967,0.084483378,-0.001101133,0.244700382
1719597316.949023,3.66968194,0.084548168,-0.001100285,0.244786915
1719597316.950056,3.669929882,0.084611513,-0.001099397,0.244872693
1719597316.951018,3.670177641,0.084673553,-0.00109842,0.244957629
1719597316.952057,3.67042509,0.084734489,-0.00109731,0.245041651
1719597316.953004,3.670672123,0.084794548,-0.001096023,0.245124704
1719597316.954019,3.670918663,0.084853959,-0.001094514,0.245206749
1719597316.955072,3.671162868,0.084915957,-0.00109294,0.245288
1719597316.956005,3.671403863,0.084974537,-0.001092064,0.245373615
1719597316.957056,3.671642487,0.085029956,-0.001091705,0.245462249
1719597316.958035,3.671879899,0.085082764,-0.001091644,0.245550891
1719597316.95903,3.672116614,0.08513442,-0.001091732,0.245638766
1719597316.960061,3.672352903,0.085186236,-0.001091865,0.245725859
1719597316.961006,3.672588984,0.085239078,-0.001091971,0.245812247
1719597316.962074,3.672825063,0.085293421,-0.00109199,0.245898
1719597316.963009,3.673061323,0.08534945,-0.001091871,0.245983193
1719597316.964061,3.673297931,0.085407137,-0.001091571,0.246067895
1719597316.965019,3.673535031,0.085466324,-0.001091051,0.24615217
1719597316.966035,3.673772741,0.085526756,-0.001090273,0.246236047
1719597316.967005,3.674011144,0.085588149,-0.001089206,0.24631954
1719597316.968025,3.674251552,0.085647727,-0.001088074,0.246402728
1719597316.969018,3.674495134,0.085709854,-0.001087571,0.24649161
1719597316.970056,3.674740736,0.085776442,-0.001087496,0.246581096
1719597316.971003,3.674987731,0.085845859,-0.001087647,0.246670486
1719597316.972057,3.675235726,0.08591633,-0.001087887,0.246759675
1719597316.973,3.675484425,0.085986522,-0.001088121,0.246848581
1719597316.974015,3.675733566,0.086055573,-0.001088276,0.246937107
1719597316.97503,3.67598291,0.086123016,-0.001088297,0.247025142
1719597316.976062,3.676232232,0.086188679,-0.001088132,0.247112563
1719597316.976998,3.676481334,0.0862526,-0.001087734,0.247199256
1719597316.978059,3.676728313,0.086317764,-0.001087256,0.247285286
1719597316.979002,3.676972213,0.086378506,-0.001087427,0.24737555
1719597316.980022,3.677213722,0.086435301,-0.001088066,0.247468725
1719597316.9811,3.677453868,0.086488877,-0.001088954,0.247561833
1719597316.982106,3.677693072,0.086540834,-0.001089938,0.247654061
1719597316.983103,3.677931537,0.086592616,-0.001090915,0.247745359
1719597316.984093,3.678169435,0.086645209,-0.001091806,0.247835777
1719597316.985091,3.678406943,0.086699193,-0.001092548,0.24792537
1719597316.985997,3.678644238,0.086754835,-0.001093089,0.248014205
1719597316.987108,3.678881492,0.08681218,-0.001093382,0.248102364
1719597316.988056,3.679118875,0.086871099,-0.001093383,0.248189903
1719597316.989093,3.679356558,0.08693134,-0.001093056,0.248276839
1719597316.990062,3.679594671,0.086992615,-0.001092367,0.248363182
1719597316.990999,3.679833333,0.087054667,-0.001091282,0.24844905
1719597316.992072,3.680072615,0.087117261,-0.001089777,0.248534489
1719597316.99308,3.680312416,0.087180314,-0.001087829,0.248619553
1719597316.994093,3.680554124,0.087240687,-0.001085671,0.248704083
1719597316.99509,3.680798908,0.087303163,-0.001084026,0.248794212
1719597316.996066,3.681045555,0.087369904,-0.001082702,0.248884763
1719597316.997021,3.681293427,0.087439362,-0.001081503,0.248974987
1719597316.998104,3.681542131,0.087509827,-0.001080301,0.24906479
1719597316.999097,3.681791377,0.087580011,-0.00107901,0.249154108
1719597317.000036,3.682039188,0.087651889,-0.001077764,0.249243054
1719597317.001077,3.682284558,0.0877191,-0.001077284,0.249336452
1719597317.002081,3.682528077,0.087781675,-0.001077389,0.249432963
1719597317.003011,3.682770663,0.087840102,-0.001077862,0.249529561
1719597317.004027,3.683016655,0.087888404,-0.001079277,0.249625557
1719597317.005081,3.683259232,0.087941133,-0.001082033,0.249720317
1719597317.005999,3.683499968,0.087996439,-0.001085614,0.249814184
1719597317.007067,3.683739614,0.088053745,-0.001089715,0.249907383
1719597317.007998,3.683978616,0.088112629,-0.00109414,0.249999959
1719597317.009015,3.684217283,0.088172751,-0.001098748,0.250091861
1719597317.010027,3.684455837,0.088233846,-0.001103422,0.250183034
1719597317.011115,3.684694449,0.088295698,-0.001108056,0.250273435
1719597317.012009,3.68493325,0.088358124,-0.001112554,0.250363016
1719597317.013026,3.685172341,0.088420972,-0.001116824,0.250451734
1719597317.014019,3.685411794,0.088484117,-0.001120776,0.250539545
1719597317.015035,3.685651656,0.088547463,-0.001124328,0.250626408
1719597317.016007,3.685891955,0.088610935,-0.001127401,0.250712287
1719597317.017062,3.686132695,0.088674482,-0.001129921,0.250797148
1719597317.018024,3.686375337,0.088734681,-0.00113207,0.250881365
1719597317.019074,3.686618826,0.088801233,-0.001134777,0.250971916
1719597317.020011,3.686861085,0.088869094,-0.001138705,0.251068534
1719597317.021067,3.687102435,0.088936505,-0.00114346,0.251168649
1719597317.022044,3.687343837,0.089001986,-0.001148658,0.251268601
1719597317.023041,3.687585567,0.08906572,-0.001154036,0.251367423
1719597317.024136,3.687827612,0.089128324,-0.001159414,0.251465063
1719597317.025048,3.688069913,0.089190328,-0.001164657,0.251561523
1719597317.02606,3.688312415,0.089252124,-0.001169655,0.251656769
1719597317.027056,3.68855507,0.089313988,-0.001174313,0.251750765
1719597317.028019,3.688797835,0.089376101,-0.001178544,0.251843487
1719597317.029119,3.689040674,0.089438565,-0.00118227,0.251934917
1719597317.030035,3.68928356,0.08950142,-0.001185416,0.252025048
1719597317.031064,3.689526473,0.08956466,-0.001187916,0.252113878
1719597317.032057,3.689769397,0.089628249,-0.00118971,0.252201415
1719597317.033015,3.690012321,0.089692136,-0.001190743,0.252287671
1719597317.034072,3.690255235,0.08975626,-0.00119097,0.252372668
1719597317.035157,3.690498134,0.089820561,-0.001190349,0.252456433
1719597317.036078,3.690741021,0.089884949,-0.001188848,0.25253896
1719597317.037075,3.690983909,0.08994931,-0.00118644,0.252620182
1719597317.038046,3.691224646,0.090017766,-0.001183285,0.252700652
1719597317.039086,3.691462448,0.090082729,-0.00118029,0.252785982
1719597317.040085,3.691699775,0.090140775,-0.001177567,0.252875076
1719597317.041094,3.691939065,0.09019795,-0.001175723,0.252970967
1719597317.042063,3.692179611,0.090258154,-0.001174441,0.253066927
1719597317.0431,3.692421019,0.090321276,-0.001173454,0.253162114
1719597317.044102,3.692663101,0.090386515,-0.00117259,0.253256507
1719597317.045105,3.692905771,0.090453058,-0.001171739,0.253350105
1719597317.046079,3.693148979,0.090520254,-0.001170826,0.253442905
1719597317.047154,3.693392677,0.090587622,-0.001169797,0.253534886
1719597317.04814,3.693636817,0.090654823,-0.001168607,0.253626006
1719597317.049171,3.693881347,0.090721641,-0.001167213,0.253716213
1719597317.050087,3.694126209,0.09078796,-0.001165579,0.253805448
1719597317.051294,3.694371341,0.090853738,-0.001163668,0.253893658
1719597317.052108,3.694616683,0.090918987,-0.001161447,0.253980792
1719597317.053124,3.694862175,0.090983755,-0.001158881,0.254066804
1719597317.054073,3.695107762,0.091048109,-0.001155943,0.254151661
1719597317.055231,3.695353399,0.091112123,-0.001152603,0.254235334
1719597317.056129,3.695599045,0.09117587,-0.001148838,0.254317807
1719597317.057063,3.69584467,0.091239416,-0.001144624,0.254399073
1719597317.058089,3.696088256,0.091306461,-0.001140131,0.254479576
1719597317.059041,3.696328992,0.091370096,-0.001136208,0.254564703
1719597317.060156,3.696567747,0.091430386,-0.001132702,0.254653121
1719597317.06112,3.696805746,0.091487745,-0.001129408,0.254741574
1719597317.06203,3.697043505,0.09154362,-0.001126193,0.254829157
1719597317.063047,3.697281256,0.091599374,-0.001122976,0.25491583
1719597317.064012,3.697519169,0.091655932,-0.001119704,0.255001658
1719597317.065074,3.697757397,0.091713819,-0.001116338,0.255086702
1719597317.066067,3.697996074,0.091773258,-0.00111285,0.255171021
1719597317.067043,3.698235319,0.091834255,-0.001109216,0.255254676
1719597317.06808,3.698476506,0.091894304,-0.00110567,0.255337736
1719597317.069049,3.698720771,0.091957705,-0.001102902,0.255426243
1719597317.070178,3.69896702,0.092026187,-0.001100719,0.255515189
1719597317.071065,3.699214694,0.092098016,-0.001098932,0.255603901
1719597317.072222,3.699463455,0.092171329,-0.00109741,0.255692328
1719597317.073252,3.699713045,0.092244692,-0.001096064,0.255780431
1719597317.074198,3.699963235,0.092317139,-0.00109483,0.255868134
1719597317.075211,3.700213803,0.092388107,-0.001093653,0.255955341
1719597317.076192,3.700464533,0.092457345,-0.001092483,0.256041942
1719597317.077242,3.70071522,0.092524829,-0.001091274,0.256127829
1719597317.078246,3.700965679,0.092590689,-0.001089982,0.256212899
1719597317.079238,3.70121575,0.09265515,-0.001088561,0.256297069
1719597317.080235,3.70146352,0.092721372,-0.001087164,0.25638047
1719597317.081205,3.701708145,0.092783523,-0.001086534,0.256468016
1719597317.082241,3.701950329,0.092842136,-0.00108649,0.25655856
1719597317.083241,3.702191162,0.092897877,-0.001086809,0.256649093
1719597317.08424,3.70243111,0.092952266,-0.001087337,0.256738772
1719597317.085287,3.702670398,0.093006691,-0.001087965,0.256827569
1719597317.086202,3.702909218,0.093062081,-0.001088614,0.256915562
1719597317.087223,3.703147759,0.093118959,-0.001089219,0.257002824
1719597317.088187,3.703386209,0.093177543,-0.001089723,0.257089431
1719597317.089194,3.703624744,0.093237833,-0.001090075,0.257175464
1719597317.090196,3.703863526,0.093299686,-0.001090229,0.257260996
1719597317.091222,3.704102696,0.093362861,-0.001090142,0.257346082
1719597317.092217,3.704342377,0.09342707,-0.001089776,0.257430741
1719597317.093257,3.704582645,0.093492034,-0.001089093,0.25751499
1719597317.094242,3.704823533,0.093557506,-0.001088063,0.257598829
1719597317.095338,3.705066414,0.093620618,-0.001086909,0.257682325
1719597317.096282,3.705312382,0.09368603,-0.001086344,0.257771616
1719597317.097265,3.705560233,0.093755736,-0.001086163,0.257861485
1719597317.09827,3.705809335,0.093828157,-0.001086162,0.257951177
1719597317.099273,3.706059302,0.093901564,-0.001086204,0.258040596
1719597317.100299,3.706309846,0.093974658,-0.001086192,0.258129669
1719597317.101278,3.706560718,0.094046603,-0.001086058,0.258218304
1719597317.102287,3.706809937,0.094119715,-0.001085943,0.258306565
1719597317.103297,3.707056571,0.094187864,-0.001086567,0.2583992
1719597317.104337,3.707301184,0.094251413,-0.001087745,0.258495024
1719597317.10537,3.707544714,0.094310994,-0.001089251,0.258590988
1719597317.106326,3.707787493,0.094368171,-0.001090928,0.258686155
1719597317.107317,3.70802962,0.094424451,-0.001092664,0.258780416
1719597317.108339,3.708271174,0.094480928,-0.001094373,0.258873778
1719597317.109288,3.708512249,0.094538302,-0.001095985,0.258966258
1719597317.110343,3.708752959,0.094596964,-0.001097437,0.259057887
1719597317.111341,3.708993425,0.094657067,-0.001098674,0.259148707
1719597317.112346,3.709233774,0.094718595,-0.001099643,0.259238769
1719597317.113366,3.709474136,0.094781415,-0.001100297,0.259328123
1719597317.11444,3.709714636,0.094845306,-0.001100592,0.259416777
1719597317.115383,3.709955373,0.094910025,-0.001100489,0.259504736
1719597317.116363,3.710196386,0.094975383,-0.001099951,0.259592042
1719597317.117324,3.710437728,0.095041152,-0.001098948,0.259678662
1719597317.118321,3.710679468,0.095107127,-0.001097451,0.259764582
1719597317.119299,3.710921622,0.095173202,-0.001095435,0.259849846
1719597317.120298,3.711164198,0.095239258,-0.001092879,0.259934419
1719597317.1213,3.711408604,0.095302295,-0.001090017,0.260018454
1719597317.122297,3.711655902,0.095367428,-0.001087597,0.26010818
1719597317.123311,3.711902938,0.095440059,-0.001085625,0.260198538
1719597317.124416,3.712148349,0.095512139,-0.001084735,0.260293897
1719597317.125701,3.712392587,0.095582183,-0.001084656,0.260392981
1719597317.126563,3.712636626,0.09564927,-0.001085112,0.260492515
1719597317.127584,3.712880563,0.095714188,-0.001085921,0.260591754
1719597317.12864,3.713124524,0.095777512,-0.001086964,0.26069021
1719597317.129472,3.713368484,0.095840008,-0.001088151,0.260787932
1719597317.13044,3.713616614,0.095894645,-0.001090151,0.260885014
1719597317.131436,3.713866636,0.095947366,-0.001092639,0.260980662
1719597317.132433,3.71411741,0.096000694,-0.001095384,0.261074793
1719597317.133443,3.714363547,0.096063429,-0.001098962,0.261167604
1719597317.134485,3.71460727,0.096131066,-0.001102987,0.261259366
1719597317.135558,3.714849693,0.096201133,-0.001107218,0.261350406
1719597317.136468,3.715091455,0.096272001,-0.001111494,0.261440797
1719597317.13746,3.715332942,0.096342665,-0.001115693,0.261530496
1719597317.138461,3.715574386,0.096412584,-0.00111971,0.261619453
1719597317.139513,3.715815921,0.096481538,-0.001123454,0.261707628
1719597317.140462,3.716057621,0.096549513,-0.00112684,0.261794976
1719597317.141635,3.71629952,0.096616624,-0.00112979,0.261881455
1719597317.14264,3.716541629,0.096683046,-0.00113223,0.261967025
1719597317.143538,3.716783946,0.096748983,-0.001134093,0.26205165
1719597317.144489,3.717024375,0.096818499,-0.001135494,0.262135773
1719597317.145503,3.717263777,0.096880957,-0.001137513,0.26222503
1719597317.146425,3.717504027,0.096942451,-0.001140777,0.26232466
1719597317.147412,3.717745118,0.097005773,-0.001144851,0.262425363
1719597317.148436,3.717986997,0.097070788,-0.001149364,0.262525165
1719597317.149439,3.718229532,0.097137148,-0.001154069,0.26262391
1719597317.15044,3.718472639,0.097204465,-0.00115879,0.262721599
1719597317.151444,3.718716265,0.097272381,-0.0011634,0.262818198
1719597317.152546,3.718960361,0.097340618,-0.001167791,0.262913666
1719597317.153479,3.719204875,0.097408979,-0.001171873,0.263007971
1719597317.154507,3.719449743,0.097477331,-0.001175564,0.263101085
1719597317.155557,3.719694898,0.097545593,-0.00117879,0.263192986
1719597317.156549,3.719940268,0.097613721,-0.00118148,0.263283659
1719597317.157648,3.720185781,0.097681704,-0.001183572,0.263373093
1719597317.158551,3.720431369,0.097749548,-0.00118501,0.263461289
1719597317.159532,3.720676968,0.097817271,-0.001185742,0.263548251
1719597317.160571,3.720922524,0.097884892,-0.001185723,0.263633991
1719597317.161541,3.721168001,0.097952392,-0.001184913,0.263718471
1719597317.162654,3.721413391,0.098019717,-0.001183281,0.263801593
1719597317.163529,3.721656532,0.098090939,-0.001180974,0.263883899
1719597317.164492,3.721896728,0.098158601,-0.001178877,0.263970857
1719597317.165569,3.722134842,0.098222795,-0.001176834,0.264061204
1719597317.166519,3.722372195,0.098283877,-0.001174629,0.264151498
1719597317.16752,3.7226108,0.098340329,-0.001172387,0.264241061
1719597317.168504,3.722851859,0.098398922,-0.001170802,0.264336063
1719597317.169556,3.723094404,0.098462757,-0.001169642,0.264430966
1719597317.170501,3.723337976,0.098530929,-0.001168685,0.264525103
1719597317.171484,3.723582386,0.098601972,-0.001167784,0.26461847
1719597317.17247,3.723827543,0.098674592,-0.001166843,0.264711096
1719597317.173439,3.724073376,0.098747795,-0.001165796,0.264802988
1719597317.174476,3.724319805,0.098820882,-0.001164592,0.264894124
1719597317.175491,3.724566749,0.098893384,-0.001163188,0.264984435
1719597317.176499,3.724814119,0.098965026,-0.001161544,0.265073841
1719597317.177508,3.725061816,0.099035697,-0.001159625,0.265162262
1719597317.178518,3.725309741,0.099105395,-0.001157393,0.265249626
1719597317.179516,3.725557798,0.0991742,-0.001154818,0.265335866
1719597317.180513,3.725805898,0.099242233,-0.001151866,0.26542093
1719597317.181505,3.726053967,0.099309638,-0.001148509,0.265504775
1719597317.182507,3.72630194,0.099376558,-0.001144722,0.265587375
1719597317.183618,3.726547754,0.099446724,-0.001140664,0.265669151
1719597317.184529,3.726790686,0.099513271,-0.001137177,0.265755324
1719597317.185538,3.727031537,0.099576458,-0.001134104,0.265844771
1719597317.1866,3.727271519,0.099636746,-0.001131238,0.265934235
1719597317.187522,3.727511146,0.099695577,-0.00112844,0.266022751
1719597317.188506,3.727750642,0.099754326,-0.001125627,0.266110272
1719597317.189474,3.727990174,0.09981393,-0.001122741,0.266196879
1719597317.190573,3.7282299,0.099874918,-0.001119741,0.26628264
1719597317.191493,3.728469966,0.099937512,-0.001116597,0.266367624
1719597317.192486,3.728710506,0.100001712,-0.001113281,0.266451897
1719597317.193479,3.728951632,0.100067375,-0.001109771,0.26653552
1719597317.194481,3.729194751,0.100131847,-0.001106301,0.266618567
1719597317.195482,3.729440943,0.10019949,-0.001103568,0.266707125
1719597317.196487,3.729689081,0.100272006,-0.00110138,0.266796143
1719597317.197486,3.729938606,0.100347674,-0.001099546,0.26688491
1719597317.198453,3.730189183,0.100424653,-0.001097937,0.266973371
1719597317.199476,3.730440562,0.100501536,-0.001096464,0.267061481
1719597317.200441,3.730692512,0.100577389,-0.001095063,0.267149165
1719597317.201468,3.730944811,0.100651679,-0.001093681,0.267236322
1719597317.202445,3.731197243,0.100724182,-0.001092271,0.267322844
1719597317.203509,3.731449601,0.1007949,-0.001090788,0.267408622
1719597317.204461,3.731699901,0.100866839,-0.001089382,0.26749376
1719597317.205601,3.731947336,0.100934098,-0.001088791,0.267582981
1719597317.206497,3.732192492,0.100997342,-0.001088834,0.267675293
1719597317.207495,3.732436387,0.10105729,-0.001089289,0.267767655
1719597317.208488,3.732679426,0.101115501,-0.001089997,0.267859135
1719597317.209587,3.732921768,0.101173433,-0.001090848,0.267949671
1719597317.210488,3.73316355,0.101232098,-0.00109176,0.268039325
1719597317.211492,3.733404919,0.101292092,-0.001092663,0.268128162
1719597317.212492,3.733646035,0.101353691,-0.001093496,0.268216244
1719597317.213552,3.733887058,0.101416945,-0.001094205,0.268303642
1719597317.214562,3.73412814,0.101481747,-0.001094739,0.268390431
1719597317.21557,3.734369421,0.101547893,-0.00109505,0.26847667
1719597317.216506,3.734611023,0.101615122,-0.001095095,0.268562402
1719597317.217509,3.734853045,0.101683164,-0.001094833,0.26864765
1719597317.218489,3.735095556,0.101751759,-0.001094226,0.26873242
1719597317.219507,3.735338598,0.10182068,-0.001093241,0.268816703
1719597317.220494,3.735582192,0.101889741,-0.001091846,0.268900487
1719597317.221639,3.735827734,0.101956109,-0.00109027,0.268983843
1719597317.222573,3.736076235,0.102024656,-0.001089237,0.269072996
1719597317.223527,3.736326455,0.102097426,-0.001088542,0.269162647
1719597317.224531,3.736577762,0.102172883,-0.001087986,0.269252009
1719597317.22555,3.736829781,0.102249331,-0.001087431,0.269340999
1719597317.226578,3.73708042,0.102328314,-0.001086985,0.269429759
1719597317.227548,3.737328809,0.102402844,-0.001087366,0.26952304
1719597317.228519,3.73757546,0.102472885,-0.001088378,0.269619807
1719597317.229513,3.7378213,0.102538745,-0.001089792,0.269716939
1719597317.230525,3.738066627,0.102601774,-0.001091444,0.269813401
1719597317.231537,3.738311483,0.102663388,-0.001093223,0.26990904
1719597317.232528,3.738555881,0.102724675,-0.00109504,0.270003848
1719597317.233523,3.738799858,0.102786367,-0.001096824,0.27009781
1719597317.234591,3.739043472,0.102848919,-0.00109851,0.270190929
1719597317.235594,3.7392868,0.102912559,-0.001100038,0.27028322
1719597317.236565,3.739529928,0.102977354,-0.001101353,0.270374715
1719597317.237632,3.73977295,0.10304325,-0.001102404,0.270465441
1719597317.238596,3.740015956,0.10311012,-0.001103142,0.270555431
1719597317.239596,3.740259033,0.103177787,-0.001103523,0.270644695
1719597317.240587,3.740502256,0.103246062,-0.001103505,0.270733238
1719597317.241844,3.740745683,0.103314767,-0.001103051,0.270821067
1719597317.242654,3.740989358,0.103383735,-0.001102127,0.270908163
1719597317.243588,3.741233318,0.103452828,-0.001100703,0.270994518
1719597317.244621,3.741477583,0.103521947,-0.001098753,0.271080128
1719597317.245672,3.741722162,0.103591014,-0.001096254,0.27116498
1719597317.246636,3.741967056,0.103659976,-0.001093186,0.271249058
1719597317.247744,3.742212256,0.103728804,-0.001089534,0.271332351
1719597317.248643,3.742457203,0.103797933,-0.001085736,0.271415346
1719597317.249657,3.742702265,0.103865749,-0.00108342,0.271509631
1719597317.250661,3.742946947,0.103934802,-0.001082255,0.271608728
1719597317.2516,3.743191834,0.104004024,-0.001081856,0.27170859
1719597317.252571,3.743437065,0.104073082,-0.001081973,0.27180811
1719597317.253684,3.743682604,0.104141959,-0.00108245,0.271907119
1719597317.254631,3.743928391,0.104210716,-0.001083186,0.27200563
1719597317.255593,3.744174368,0.104279405,-0.001084103,0.272103628
1719597317.256543,3.744415591,0.104355396,-0.001085898,0.272201196
1719597317.257545,3.74465479,0.10443354,-0.001088225,0.272298263
1719597317.258508,3.744893356,0.104511242,-0.001090866,0.272394935
1719597317.25954,3.745132033,0.104587309,-0.001093674,0.272491036
1719597317.260534,3.745375512,0.104653652,-0.001097264,0.272586508
1719597317.26157,3.7456216,0.104715977,-0.001101294,0.272681272
1719597317.262621,3.745869117,0.104777091,-0.001105533,0.272775421
1719597317.263696,3.746117372,0.104838664,-0.001109825,0.272868738
1719597317.264639,3.746365951,0.104901527,-0.001114047,0.272960976
1719597317.265633,3.746614465,0.104966111,-0.001118095,0.273051977
1719597317.266605,3.746862895,0.105032271,-0.001121874,0.273141469
1719597317.267634,3.747111132,0.105099971,-0.001125293,0.273229588
1719597317.268649,3.747359128,0.105168966,-0.001128267,0.273316352
1719597317.269716,3.747604751,0.105242749,-0.001130898,0.273402249
1719597317.270692,3.747847419,0.10531369,-0.001133993,0.273492475
1719597317.271634,3.748087946,0.105381723,-0.001137343,0.273585994
1719597317.272627,3.748327643,0.105446915,-0.001140682,0.273679349
1719597317.273817,3.748567068,0.105510482,-0.00114382,0.273771497
1719597317.274675,3.748807913,0.105570568,-0.001146872,0.273862752
1719597317.275653,3.749051217,0.10563363,-0.00115052,0.273959539
1719597317.27659,3.749295857,0.105702374,-0.001154507,0.274056371
1719597317.277586,3.749541418,0.105775439,-0.00115858,0.274152293
1719597317.278584,3.749787734,0.105851106,-0.001162554,0.274247197
1719597317.279629,3.750034714,0.105927961,-0.001166292,0.274341058
1719597317.280644,3.750282279,0.106004977,-0.001169691,0.274433858
1719597317.281587,3.750530337,0.10608148,-0.001172665,0.274525579
1719597317.282577,3.750778772,0.106157086,-0.001175141,0.274616205
1719597317.283524,3.751027456,0.106231627,-0.001177054,0.274705719
1719597317.284538,3.751276251,0.106305098,-0.001178349,0.274794109
1719597317.285544,3.751525031,0.10637758,-0.001178976,0.274881363
1719597317.28655,3.751773683,0.106449167,-0.001178888,0.274967389
1719597317.28753,3.752022124,0.10651997,-0.001178046,0.275052045
1719597317.288569,3.752268168,0.10659407,-0.001176586,0.275135791
1719597317.289579,3.752511177,0.106664234,-0.00117537,0.275223898
1719597317.290569,3.752751942,0.106730786,-0.001174234,0.275315293
1719597317.291589,3.752991754,0.1067942,-0.001172959,0.27540656
1719597317.292596,3.753231165,0.106856013,-0.0011714,0.275496707
1719597317.293604,3.753470357,0.106917737,-0.001169471,0.275585712
1719597317.294613,3.753709493,0.106980328,-0.001167117,0.275673536
1719597317.295738,3.753950214,0.10704152,-0.001164551,0.275760357
1719597317.296664,3.754193661,0.107106689,-0.001162496,0.275852456
1719597317.297657,3.754438787,0.107177957,-0.001160752,0.275944634
1719597317.298675,3.75468516,0.107253706,-0.001159123,0.276036179
1719597317.299695,3.754932587,0.107332027,-0.001157479,0.276127098
1719597317.300683,3.755180942,0.107411367,-0.001155737,0.276217415
1719597317.301663,3.755430111,0.107490591,-0.001153839,0.276307104
1719597317.302654,3.755679973,0.107568955,-0.001151743,0.276396104
1719597317.303674,3.755930388,0.107646026,-0.001149412,0.276484325
1719597317.304648,3.756181212,0.107721619,-0.001146814,0.276571668
1719597317.30572,3.756432292,0.10779573,-0.001143918,0.276658036
1719597317.306614,3.756683481,0.107868474,-0.001140697,0.276743346
1719597317.307522,3.756932647,0.107943471,-0.001137303,0.276827918
1719597317.308541,3.757179094,0.108014084,-0.001134555,0.2769167
1719597317.309524,3.757423471,0.10808086,-0.001132293,0.277008747
1719597317.310643,3.757666899,0.108144406,-0.001130306,0.277100824
1719597317.311626,3.757909829,0.108206246,-0.001128448,0.277191889
1719597317.31263,3.758152425,0.108267841,-0.001126627,0.277281866
1719597317.313652,3.758394814,0.108330206,-0.00112478,0.277370831
1719597317.314644,3.758637128,0.10839393,-0.001122857,0.27745885
1719597317.315657,3.758879506,0.108459281,-0.001120818,0.27754599
1719597317.316759,3.759122084,0.108526291,-0.001118627,0.27763232
1719597317.317639,3.759364989,0.108594832,-0.001116253,0.277717908
1719597317.318638,3.759608331,0.108664683,-0.001113668,0.277802811
1719597317.319659,3.759852197,0.108735572,-0.001110847,0.277887074
1719597317.320798,3.760096652,0.10880722,-0.001107766,0.277970728
1719597317.32169,3.760341735,0.108879362,-0.001104403,0.278053789
1719597317.322664,3.760588846,0.108949251,-0.001100998,0.278136286
1719597317.323647,3.760838956,0.109021525,-0.00109827,0.278224438
1719597317.324645,3.761090833,0.109098039,-0.001096022,0.278313031
1719597317.325679,3.761343865,0.109177193,-0.001094061,0.278401276
1719597317.326626,3.761597687,0.109257265,-0.001092255,0.278489107
1719597317.327693,3.761852029,0.109336958,-0.001090517,0.278576474
1719597317.328752,3.762104814,0.109418271,-0.001088979,0.278663509
1719597317.329673,3.762355267,0.109494529,-0.001088372,0.278754838
1719597317.330658,3.762603857,0.109566081,-0.001088513,0.278849589
1719597317.331658,3.762851514,0.109633432,-0.001089173,0.278944641
1719597317.332699,3.763098547,0.109698051,-0.001090191,0.279038932
1719597317.333625,3.763345003,0.109761431,-0.001091453,0.279132325
1719597317.334634,3.763590904,0.109824696,-0.001092871,0.279224833
1719597317.335593,3.763836303,0.109888586,-0.00109437,0.279316473
1719597317.336588,3.76408128,0.109953538,-0.001095883,0.279407268
1719597317.337558,3.76432593,0.110019752,-0.001097346,0.27949726
1719597317.338574,3.764570364,0.110087256,-0.001098702,0.279586493
1719597317.339548,3.764814692,0.110155962,-0.001099895,0.279675017
1719597317.340582,3.765059021,0.110225707,-0.001100871,0.279762878
1719597317.341562,3.765303448,0.11029629,-0.001101581,0.279850103
1719597317.342594,3.765548059,0.110367502,-0.001101978,0.279936717
1719597317.343559,3.765792919,0.110439145,-0.001102019,0.280022728
1719597317.344599,3.766038079,0.110511042,-0.001101665,0.280108131
1719597317.345671,3.766283571,0.11058305,-0.001100878,0.280192919
1719597317.346813,3.766529413,0.110655061,-0.001099626,0.280277081
1719597317.347686,3.766775606,0.110726997,-0.00109788,0.280360599
1719597317.34904,3.767022144,0.110798807,-0.001095615,0.280443456
1719597317.349708,3.767269008,0.110870466,-0.001092808,0.280525637
1719597317.350778,3.767515605,0.110942507,-0.001089899,0.280607534
1719597317.351815,3.767762334,0.111013159,-0.001088517,0.280700768
1719597317.352662,3.768008637,0.111085026,-0.00108832,0.280799009
1719597317.353637,3.768255133,0.111157021,-0.001088913,0.28089813
1719597317.354626,3.768501961,0.111228827,-0.001090036,0.280996996
1719597317.35569,3.768749026,0.111300485,-0.001091527,0.281095453
1719597317.35666,3.768996316,0.111371995,-0.001093277,0.281193444
1719597317.357658,3.769243753,0.111443452,-0.001095203,0.281291006
1719597317.358627,3.769491287,0.11151489,-0.001097234,0.281388079
1719597317.359647,3.769738876,0.111586323,-0.001099306,0.281484595
1719597317.360632,3.769986482,0.111657769,-0.001101359,0.281580501
1719597317.361552,3.770234071,0.111729238,-0.001103334,0.28167575
1719597317.362582,3.770481616,0.111800734,-0.001105174,0.281770292
1719597317.363567,3.770729096,0.111872256,-0.001106823,0.281864087
1719597317.3646,3.770976496,0.111943805,-0.001108229,0.281957097
1719597317.365597,3.771223808,0.112015372,-0.001109338,0.282049287
1719597317.366622,3.77147103,0.112086953,-0.001110102,0.282140625
1719597317.367631,3.771718161,0.112158543,-0.001110475,0.282231089
1719597317.368643,3.77196521,0.112230137,-0.001110414,0.282320658
1719597317.369673,3.772212187,0.112301728,-0.001109878,0.282409311
1719597317.370643,3.772459105,0.112373312,-0.001108833,0.282497038
1719597317.371637,3.77270598,0.112444887,-0.001107247,0.282583831
1719597317.372619,3.77295283,0.112516448,-0.001105092,0.282669684
1719597317.373625,3.773199675,0.112587993,-0.001102346,0.282754598
1719597317.374732,3.773444525,0.112662828,-0.001099179,0.282838916
1719597317.375686,3.773686857,0.112734116,-0.001096419,0.282927641
1719597317.376642,3.77392741,0.112802287,-0.001093916,0.283019967
1719597317.377615,3.774167402,0.112867767,-0.001091471,0.283112684
1719597317.378624,3.774408716,0.112929357,-0.001089208,0.28320477
1719597317.379607,3.77465251,0.112993157,-0.001087778,0.283302167
1719597317.38058,3.774897709,0.113062065,-0.001086954,0.283399896
1719597317.381603,3.77514388,0.113135133,-0.001086525,0.283497265
1719597317.38256,3.77539085,0.113210933,-0.001086352,0.283594276
1719597317.383573,3.775638531,0.1132882,-0.001086337,0.283690923
1719597317.384554,3.775886846,0.11336597,-0.001086413,0.283787171
1719597317.385642,3.776135714,0.113443557,-0.001086524,0.283882959
1719597317.386568,3.776385042,0.113520529,-0.001086619,0.283978218
1719597317.387601,3.776634718,0.113596654,-0.001086652,0.28407288
1719597317.388609,3.776884627,0.113671842,-0.001086578,0.284166855
1719597317.389611,3.777133884,0.113746327,-0.001087875,0.284260015
1719597317.390682,3.777382899,0.113820275,-0.001089956,0.284352193
1719597317.391641,3.777631779,0.113893612,-0.001092463,0.284443853
1719597317.392644,3.777880531,0.113966398,-0.001095183,0.284534922
1719597317.393638,3.778128994,0.114038849,-0.001097971,0.284625292
1719597317.394668,3.778377165,0.114110865,-0.001100715,0.284714456
1719597317.395745,3.77862509,0.114182539,-0.001103316,0.284802321
1719597317.396704,3.778872732,0.114254101,-0.001105685,0.284888973
1719597317.397888,3.779118048,0.114329224,-0.001107917,0.284974824
1719597317.39873,3.779360629,0.114400829,-0.001110794,0.285064791
1719597317.399733,3.779601226,0.114469424,-0.001114105,0.285158179
1719597317.400715,3.779841114,0.11453543,-0.001117585,0.28525171
1719597317.401807,3.780080852,0.114600192,-0.00112104,0.285344299
1719597317.402731,3.78032213,0.114662095,-0.001124582,0.285436159
1719597317.403852,3.780565919,0.114727439,-0.001128869,0.285533643
1719597317.40478,3.780811114,0.114798774,-0.001133635,0.285631352
1719597317.405849,3.781057334,0.114874713,-0.001138621,0.285728316
1719597317.406902,3.781304439,0.11495351,-0.001143632,0.285824413
1719597317.407802,3.781552361,0.115033708,-0.001148522,0.285919598
1719597317.408801,3.781801029,0.115114231,-0.001153175,0.286013826
1719597317.409826,3.782050348,0.115194356,-0.00115749,0.286107052
1719597317.410807,3.782300198,0.115273654,-0.001161382,0.286199232
1719597317.411799,3.782550432,0.115351925,-0.001164771,0.286290323
1719597317.412789,3.782800897,0.115429129,-0.001167587,0.286380288
1719597317.413728,3.783051436,0.11550534,-0.001169766,0.286469097
1719597317.414718,3.783301911,0.115580674,-0.001171247,0.28655671
1719597317.415742,3.783550026,0.115659124,-0.001172148,0.286643527
1719597317.416727,3.783795242,0.115733353,-0.001173308,0.286734518
1719597317.417725,3.78403824,0.115803853,-0.001174545,0.286828816
1719597317.41874,3.784280264,0.115871116,-0.001175622,0.286922981
1719597317.419753,3.784521839,0.115936643,-0.001176372,0.28701589
1719597317.420777,3.784763138,0.116001959,-0.00117669,0.287107522
1719597317.421769,3.785004292,0.116068087,-0.001176504,0.28719793
1719597317.422771,3.785245458,0.11613559,-0.00117576,0.287287105
1719597317.423773,3.78548829,0.116201729,-0.001174665,0.287375297
1719597317.424797,3.785733844,0.116271883,-0.001173955,0.287468787
1719597317.425913,3.785981037,0.116348049,-0.001173424,0.287562256
1719597317.426807,3.786229403,0.116428589,-0.001172867,0.287654968
1719597317.427801,3.786478748,0.116511539,-0.001172146,0.287746884
1719597317.42879,3.786728938,0.116595331,-0.001171172,0.287838034
1719597317.429806,3.786979868,0.116678808,-0.001169884,0.287928378
1719597317.43096,3.787231417,0.116761241,-0.001168238,0.288017867
1719597317.431811,3.787483439,0.116842235,-0.001166194,0.288106408
1719597317.432794,3.787735796,0.116921618,-0.001163719,0.288193876
1719597317.433821,3.787988342,0.116999413,-0.001160782,0.288280172
1719597317.434792,3.788238837,0.117079388,-0.00115753,0.288365677
1719597317.435791,3.78848668,0.117154593,-0.001154803,0.288455319
1719597317.436707,3.788732484,0.117225651,-0.001152444,0.28854828
1719597317.437778,3.788977378,0.117293202,-0.001150241,0.288641243
1719597317.438828,3.789221816,0.1173588,-0.001148049,0.288733064
1719597317.439787,3.789465947,0.117423974,-0.001145777,0.288823642
1719597317.440767,3.789709876,0.117489809,-0.001143366,0.288913058
1719597317.441719,3.789953724,0.117556952,-0.001140771,0.289001383
1719597317.442771,3.790197627,0.11762571,-0.001137957,0.289088688
1719597317.443771,3.790441719,0.117696146,-0.001134896,0.289175047
1719597317.444716,3.790686131,0.11776815,-0.001131563,0.289260537
1719597317.445835,3.790930979,0.117841511,-0.001127937,0.289345222
1719597317.44676,3.791176357,0.11791596,-0.001124003,0.289429159
1719597317.447772,3.791422337,0.117991212,-0.001119744,0.289512388
1719597317.44874,3.79167038,0.118064496,-0.001115406,0.289594943
1719597317.449675,3.791921432,0.118140441,-0.00111172,0.289683101
1719597317.450856,3.792174271,0.118220794,-0.001108495,0.289771669
1719597317.451875,3.792428316,0.118303905,-0.001105544,0.289859843
1719597317.452872,3.792683234,0.118388003,-0.001102744,0.289947569
1719597317.453884,3.792938776,0.118471752,-0.001100014,0.29003481
1719597317.454823,3.793192818,0.118557186,-0.001097491,0.290121734
1719597317.45572,3.793444685,0.118637423,-0.001095925,0.290212916
1719597317.456743,3.793694804,0.11871289,-0.00109514,0.290307636
1719597317.457705,3.793944111,0.118784089,-0.001094914,0.290402735
1719597317.458713,3.794192909,0.118852471,-0.001095085,0.290497072
1719597317.459684,3.794441223,0.118919542,-0.001095547,0.290590495
1719597317.460768,3.794689051,0.118986444,-0.001096214,0.290683024
1719597317.461695,3.794936425,0.119053932,-0.001097017,0.29077468
1719597317.462715,3.795183405,0.119122454,-0.001097891,0.29086549
1719597317.463676,3.795430076,0.119192217,-0.001098778,0.290955495
1719597317.464691,3.795676536,0.119263256,-0.001099621,0.291044743
1719597317.465677,3.795922888,0.119335483,-0.001100366,0.291133285
1719597317.466701,3.796169233,0.119408737,-0.001100962,0.291221164
1719597317.467647,3.796415662,0.119482819,-0.001101361,0.291308417
1719597317.468703,3.796662256,0.119557521,-0.001101516,0.291395071
1719597317.46965,3.796909077,0.119632645,-0.001101385,0.291481138
1719597317.470697,3.797156174,0.119708019,-0.001100926,0.291566625
1719597317.471686,3.797403578,0.1197835,-0.001100103,0.291651528
1719597317.472678,3.797651303,0.119858979,-0.001098881,0.291735838
1719597317.473648,3.797899353,0.119934379,-0.001097228,0.29181954
1719597317.47468,3.798147717,0.120009649,-0.001095119,0.29190262
1719597317.475732,3.798396376,0.120084765,-0.001092528,0.291985064
1719597317.4767,3.798643261,0.120162934,-0.001089632,0.292067154
1719597317.477746,3.798887871,0.120237241,-0.001087264,0.292153839
1719597317.478668,3.799132316,0.120305713,-0.001085534,0.292244495
1719597317.479717,3.799378678,0.12037384,-0.001084986,0.292342167
1719597317.480673,3.799626188,0.12044495,-0.001085292,0.292440422
1719597317.481709,3.799874426,0.120518862,-0.001086185,0.292538341
1719597317.482661,3.800123188,0.1205948,-0.001087486,0.292635944
1719597317.483702,3.800372371,0.12067199,-0.001089077,0.292733254
1719597317.484666,3.800621908,0.120749798,-0.001090867,0.292830245
1719597317.485728,3.800871735,0.120827759,-0.001092786,0.292926871
1719597317.486665,3.801121785,0.120905552,-0.001094768,0.29302307
1719597317.487703,3.801371986,0.120982981,-0.001096755,0.293118779
1719597317.488763,3.801622263,0.121059946,-0.001098687,0.293213928
1719597317.489759,3.801872545,0.121136416,-0.001100507,0.293308445
1719597317.490744,3.802122767,0.121212413,-0.001102159,0.293402264
1719597317.491725,3.802372869,0.12128799,-0.001103588,0.293495324
1719597317.492735,3.802622804,0.121363219,-0.001104741,0.293587575
1719597317.493719,3.802872538,0.121438177,-0.001105568,0.293678969
1719597317.49473,3.803122047,0.12151294,-0.00110602,0.293769474
1719597317.495745,3.803371319,0.121587578,-0.001106053,0.293859064
1719597317.496715,3.803620357,0.121662146,-0.001105625,0.293947721
1719597317.497706,3.803869171,0.121736691,-0.0011047,0.294035436
1719597317.498749,3.804117782,0.121811245,-0.001103244,0.294122209
1719597317.499737,3.804366217,0.12188583,-0.00110123,0.294208042
1719597317.500749,3.804612484,0.121963654,-0.001098824,0.294293247
1719597317.501748,3.804856174,0.122037881,-0.001096845,0.294382715
1719597317.502741,3.805097986,0.122109091,-0.001095138,0.294475837
1719597317.503729,3.805339177,0.12217771,-0.001093498,0.294569399
1719597317.504734,3.805580209,0.122245113,-0.001091789,0.294662333
1719597317.505764,3.805822727,0.12231005,-0.001090181,0.294754467
1719597317.506734,3.80606775,0.122378202,-0.001089343,0.294851965
1719597317.507739,3.806314213,0.122451974,-0.00108906,0.2949499
1719597317.508799,3.806561716,0.122530122,-0.001089129,0.295047547
1719597317.509773,3.806810177,0.122610919,-0.001089409,0.295144822
1719597317.511017,3.807059449,0.122693091,-0.001089807,0.29524184
1719597317.511855,3.80730945,0.122775607,-0.001090255,0.295338581
1719597317.512987,3.807560027,0.122857792,-0.001090698,0.295434983
1719597317.513868,3.807811116,0.122939116,-0.001091087,0.295530853
1719597317.514804,3.808062585,0.123019374,-0.001091372,0.295626119
1719597317.515856,3.808314303,0.123098507,-0.001091508,0.295720686
1719597317.516811,3.808566137,0.12317656,-0.001091448,0.295814451
1719597317.517864,3.808817967,0.123253655,-0.001091148,0.295907325
1719597317.518832,3.809069682,0.123329953,-0.001090563,0.295999234
1719597317.51982,3.809316069,0.123412982,-0.001090416,0.296090334
1719597317.520796,3.809559985,0.123497696,-0.001090385,0.296180737
1719597317.521883,3.809802848,0.123581819,-0.00109028,0.296270552
1719597317.522812,3.810045427,0.123664184,-0.001089989,0.296359913
1719597317.523867,3.810288146,0.123744457,-0.00108943,0.296448667
1719597317.524797,3.810529193,0.123826208,-0.001088704,0.296537032
1719597317.525745,3.810768312,0.123902842,-0.001088573,0.296629523
1719597317.526797,3.811006208,0.123975128,-0.00108886,0.296725654
1719597317.527744,3.811248525,0.124036353,-0.001090052,0.296822266
1719597317.528763,3.811493279,0.124093847,-0.001091739,0.296918027
1719597317.529733,3.811740626,0.124149383,-0.001093912,0.297013036
1719597317.530772,3.811990776,0.124209789,-0.001097108,0.297112655
1719597317.531776,3.812242385,0.124277916,-0.001101032,0.297211846
1719597317.532789,3.812494791,0.124352756,-0.00110542,0.297309981
1719597317.533802,3.812747687,0.124432568,-0.001110074,0.297407126
