__time,/effort_controller/commands/data[1],/joint_states/front_left_wheel_joint/effort,/joint_states/front_left_motor_joint/position,/joint_states/front_left_motor_joint/velocity
1718737782.000327,0.0,0.0,-0.010626723,0.001031235
1718737782.001441,0.0,0.0,-0.010626617,0.000637447
1718737782.002561,0.0,0.0,-0.010626969,-3.1446e-05
1718737782.003121,0.0,0.0,-0.010627977,-0.000953107
1718737782.004235,0.0,0.0,-0.010629821,-0.002098097
1718737782.005346,0.0,0.0,-0.010633795,-0.001870689
1718737782.006465,0.0,0.0,-0.010641189,-0.010202069
1718737782.007024,0.0,0.0,-0.010643313,-0.010197562
1718737782.008159,0.0,0.0,-0.010642765,-0.010672982
1718737782.009259,0.0,0.0,-0.010646388,-0.014713785
1718737782.010349,0.0,0.0,-0.010646149,-0.009812468
1718737782.011463,0.0,0.0,-0.010648984,-0.014780353
1718737782.012153,0.0,0.0,-0.010655736,-0.019708915
1718737782.013169,0.0,0.0,-0.010666939,-0.023720989
1718737782.014285,0.0,0.0,-0.010682673,-0.026851898
1718737782.015408,0.0,0.0,-0.010702602,-0.029206167
1718737782.016523,0.0,0.0,-0.010726088,-0.030871002
1718737782.017087,0.0,0.0,-0.010752326,-0.031918755
1718737782.0182,0.0,0.0,-0.010780449,-0.032416672
1718737782.019312,0.0,0.0,-0.010809612,-0.032433044
1718737782.020423,0.0,0.0,-0.010839052,-0.032039453
1718737782.020994,0.0,0.0,-0.010868124,-0.03131042
1718737782.022146,0.0,0.0,-0.010896323,-0.030321631
1718737782.023275,0.0,0.0,-0.010923287,-0.029147567
1718737782.024365,0.0,0.0,-0.01094879,-0.027859035
1718737782.025477,0.0,0.0,-0.01097273,-0.026520937
1718737782.026037,0.0,0.0,-0.010995104,-0.025190419
1718737782.027149,0.0,0.0,-0.011015994,-0.023915502
1718737782.02826,0.0,0.0,-0.011035536,-0.022734217
1718737782.029371,0.0,0.0,-0.011053908,-0.021674242
1718737782.030483,0.0,0.0,-0.011071308,-0.02075299
1718737782.031044,0.0,0.0,-0.011087935,-0.019978106
1718737782.032155,0.0,0.0,-0.011103985,-0.019348299
1718737782.033268,0.0,0.0,-0.011116586,-0.017706283
1718737782.034342,0.0,0.0,-0.0111129,0.002819892
1718737782.035455,0.0,0.0,-0.01110619,0.010139724
1718737782.036028,0.0,0.0,-0.011098648,0.013558096
1718737782.037131,0.0,0.0,-0.011090671,0.015143414
1718737782.038242,0.0,0.0,-0.011082395,0.015566223
1718737782.039355,0.0,0.0,-0.011073976,0.015184356
1718737782.040466,0.0,0.0,-0.011065639,0.014241614
1718737782.041028,0.0,0.0,-0.011057658,0.012927771
1718737782.042139,0.0,0.0,-0.011050312,0.011401689
1718737782.043251,0.0,0.0,-0.011043847,0.009800124
1718737782.044362,0.0,0.0,-0.011038436,0.008240404
1718737782.045474,0.0,0.0,-0.011034165,0.006820644
1718737782.046034,0.0,0.0,-0.011031023,0.005619254
1718737782.047147,0.0,0.0,-0.011028904,0.004694563
1718737782.048258,0.0,0.0,-0.011027621,0.004084935
1718737782.049371,0.0,0.0,-0.011026928,0.003809488
1718737782.049939,0.0,0.0,-0.011026535,0.003869417
1718737782.051049,0.0,0.0,-0.011026136,0.004249853
1718737782.052158,0.0,0.0,-0.011025428,0.004922131
1718737782.053273,0.0,0.0,-0.011055086,0.006503811
1718737782.054342,0.0,0.0,-0.011013037,-0.007104237
1718737782.055448,0.0,0.0,-0.01103079,-0.019203372
1718737782.056008,0.0,0.0,-0.011059429,-0.021963629
1718737782.05712,0.0,0.0,-0.011089883,-0.022139442
1718737782.058237,0.0,0.0,-0.011118958,-0.021044464
1718737782.059357,0.0,0.0,-0.011145048,-0.019173263
1718737782.059937,0.0,0.0,-0.011167324,-0.016820712
1718737782.061023,0.0,0.0,-0.01118546,-0.014204173
1718737782.062152,0.0,0.0,-0.011199476,-0.011499516
1718737782.06325,0.0,0.0,-0.011209638,-0.008853659
1718737782.064361,0.0,0.0,-0.011216378,-0.006388746
1718737782.065473,0.0,0.0,-0.011220222,-0.004203271
1718737782.066039,0.0,0.0,-0.011221749,-0.00237236
1718737782.067151,0.0,0.0,-0.011221546,-0.000948165
1718737782.068266,0.0,0.0,-0.011220185,3.9285e-05
1718737782.06941,0.0,0.0,-0.011218201,0.000580638
1718737782.069971,0.0,0.0,-0.011216077,0.000685239
1718737782.071086,0.0,0.0,-0.011214243,0.000378684
1718737782.072239,0.0,0.0,-0.011213062,-0.00029995
1718737782.073392,0.0,0.0,-0.011212834,-0.001301087
1718737782.073947,0.0,0.0,-0.011214521,-0.000934506
1718737782.075071,0.0,0.0,-0.011220112,-0.008995268
1718737782.076179,0.0,0.0,-0.011221236,-0.009012327
1718737782.077334,0.0,0.0,-0.011220286,-0.009532189
1718737782.078448,0.0,0.0,-0.011220016,-0.011239124
1718737782.079005,0.0,0.0,-0.011226284,-0.016667855
1718737782.080115,0.0,0.0,-0.011229958,-0.012456778
1718737782.081227,0.0,0.0,-0.011237703,-0.017746934
1718737782.082383,0.0,0.0,-0.011249728,-0.022666956
1718737782.083497,0.0,0.0,-0.011266006,-0.026420864
1718737782.084053,0.0,0.0,-0.011286207,-0.029083756
1718737782.085165,0.0,0.0,-0.011309715,-0.030790049
1718737782.08628,0.0,0.0,-0.011335721,-0.031655451
1718737782.087449,0.0,0.0,-0.011363324,-0.031781595
1718737782.088571,0.0,0.0,-0.011391622,-0.031265868
1718737782.089069,0.0,0.0,-0.011419773,-0.030206869
1718737782.090235,0.0,0.0,-0.01144705,-0.028705767
1718737782.091314,0.0,0.0,-0.011472861,-0.026865041
1718737782.092436,0.0,0.0,-0.01149677,-0.02478592
1718737782.092983,0.0,0.0,-0.011518491,-0.022565363
1718737782.094096,0.0,0.0,-0.01153788,-0.020293143
1718737782.095209,0.0,0.0,-0.011554919,-0.018049317
1718737782.096321,0.0,0.0,-0.011569695,-0.015902279
1718737782.097449,0.0,0.0,-0.011582376,-0.013907449
1718737782.098556,0.0,0.0,-0.011593186,-0.012106604
1718737782.099112,0.0,0.0,-0.011602389,-0.010527833
1718737782.100295,0.0,0.0,-0.011610264,-0.009186042
1718737782.101399,0.0,0.0,-0.011613864,-0.006759486
1718737782.10251,0.0,0.0,-0.011599966,0.014714008
1718737782.103069,0.0,0.0,-0.011582326,0.022603826
1718737782.10423,0.0,0.0,-0.011563436,0.026408455
1718737782.105348,0.0,0.0,-0.011543915,0.028231795
1718737782.106458,0.0,0.0,-0.011524063,0.028763608
1718737782.107023,0.0,0.0,-0.011504161,0.028376804
1718737782.108135,0.0,0.0,-0.011484527,0.027329206
1718737782.10925,0.0,0.0,-0.011465505,0.025824462
1718737782.110348,0.0,0.0,-0.011447425,0.024035238
1718737782.111462,0.0,0.0,-0.011430569,0.022111782
1718737782.112576,0.0,0.0,-0.01144008,0.020816427
1718737782.113131,0.0,0.0,-0.011390304,0.004976136
1718737782.114244,0.0,0.0,-0.01139881,-0.009880623
1718737782.115361,0.0,0.0,-0.011419995,-0.015255971
1718737782.116477,0.0,0.0,-0.011445258,-0.017814711
1718737782.117041,0.0,0.0,-0.011471362,-0.018781306
1718737782.118153,0.0,0.0,-0.011496467,-0.0185858
1718737782.119265,0.0,0.0,-0.011519392,-0.017483695
1718737782.120383,0.0,0.0,-0.011539388,-0.015676132
1718737782.121541,0.0,0.0,-0.011556023,-0.013343483
1718737782.122125,0.0,0.0,-0.011569107,-0.010655172
1718737782.123492,0.0,0.0,-0.011578642,-0.007770844
1718737782.124581,0.0,0.0,-0.011584772,-0.004838293
1718737782.125705,0.0,0.0,-0.011587753,-0.001990455
1718737782.126297,0.0,0.0,-0.011587921,0.000657454
1718737782.127412,0.0,0.0,-0.011585668,0.003010168
1718737782.128602,0.0,0.0,-0.011581425,0.00499376
1718737782.129165,0.0,0.0,-0.011575639,0.006556139
1718737782.130273,0.0,0.0,-0.011568765,0.007666684
1718737782.131424,0.0,0.0,-0.011561247,0.008315105
1718737782.132545,0.0,0.0,-0.011553511,0.008509643
1718737782.133094,0.0,0.0,-0.011545951,0.008274753
1718737782.134205,0.0,0.0,-0.011538921,0.007648403
1718737782.135323,0.0,0.0,-0.01153273,0.006679154
1718737782.136432,0.0,0.0,-0.011527638,0.00542314
1718737782.137562,0.0,0.0,-0.011523846,0.003941088
1718737782.138108,0.0,0.0,-0.011521502,0.002295498
1718737782.139213,0.0,0.0,-0.011520699,0.000548051
1718737782.140325,0.0,0.0,-0.011521973,0.000494397
1718737782.141437,0.0,0.0,-0.011527427,-0.007829045
1718737782.142588,0.0,0.0,-0.011528548,-0.007909238
1718737782.14315,0.0,0.0,-0.011527558,-0.008339209
1718737782.144264,0.0,0.0,-0.011527054,-0.009819622
1718737782.145376,0.0,0.0,-0.011532723,-0.014893971
1718737782.146493,0.0,0.0,-0.011535362,-0.010279901
1718737782.147063,0.0,0.0,-0.011541679,-0.015097835
1718737782.148206,0.0,0.0,-0.011551823,-0.019518467
1718737782.149359,0.0,0.0,-0.011565728,-0.022786859
1718737782.150477,0.0,0.0,-0.011583065,-0.02500297
1718737782.151627,0.0,0.0,-0.011603256,-0.026321194
1718737782.15219,0.0,0.0,-0.011625558,-0.026873258
1718737782.153352,0.0,0.0,-0.011649159,-0.026772691
1718737782.154473,0.0,0.0,-0.011673251,-0.026124528
1718737782.155592,0.0,0.0,-0.011697099,-0.025030843
1718737782.156157,0.0,0.0,-0.011720075,-0.023592344
1718737782.157278,0.0,0.0,-0.011741689,-0.021907507
1718737782.158369,0.0,0.0,-0.011761591,-0.020070506
1718737782.159521,0.0,0.0,-0.011779575,-0.018168764
1718737782.160095,0.0,0.0,-0.011795567,-0.016280645
1718737782.16126,0.0,0.0,-0.0118096,-0.014473547
1718737782.162405,0.0,0.0,-0.011821801,-0.012802561
1718737782.16357,0.0,0.0,-0.011832365,-0.011309719
1718737782.164135,0.0,0.0,-0.011841529,-0.010023836
1718737782.165333,0.0,0.0,-0.011846381,-0.007648817
1718737782.166408,0.0,0.0,-0.011833774,0.013581498
1718737782.1677,0.0,0.0,-0.011817355,0.021352685
1718737782.168285,0.0,0.0,-0.011799631,0.025069934
1718737782.1694,0.0,0.0,-0.011781258,0.026804505
1718737782.170573,0.0,0.0,-0.011762581,0.027233643
1718737782.171406,0.0,0.0,-0.011743924,0.026723625
1718737782.172523,0.0,0.0,-0.011725645,0.025528984
1718737782.173686,0.0,0.0,-0.011733738,0.024539963
1718737782.174264,0.0,0.0,-0.011682247,0.008435055
1718737782.175467,0.0,0.0,-0.011688572,-0.007285764
1718737782.176647,0.0,0.0,-0.011707806,-0.013548963
1718737782.177237,0.0,0.0,-0.011731667,-0.017154034
1718737782.178391,0.0,0.0,-0.011757162,-0.019289488
1718737782.179521,0.0,0.0,-0.011782632,-0.020326476
1718737782.180694,0.0,0.0,-0.01180701,-0.020460033
1718737782.181281,0.0,0.0,-0.011829587,-0.019834883
1718737782.182403,0.0,0.0,-0.011849901,-0.018581709
1718737782.183555,0.0,0.0,-0.011867671,-0.016828555
1718737782.184659,0.0,0.0,-0.011882755,-0.014702898
1718737782.185231,0.0,0.0,-0.011895116,-0.01232994
1718737782.186436,0.0,0.0,-0.011904802,-0.009829515
1718737782.187573,0.0,0.0,-0.01191193,-0.007312756
1718737782.188703,0.0,0.0,-0.011916672,-0.004879085
1718737782.189299,0.0,0.0,-0.011919248,-0.00261379
1718737782.190422,0.0,0.0,-0.011919914,-0.000586327
1718737782.191693,0.0,0.0,-0.011918956,0.001150621
1718737782.192258,0.0,0.0,-0.011916677,0.002561357
1718737782.193407,0.0,0.0,-0.011913391,0.003626691
1718737782.194555,0.0,0.0,-0.011909412,0.004342885
1718737782.195712,0.0,0.0,-0.011905044,0.004720092
1718737782.196362,0.0,0.0,-0.011900572,0.004780428
1718737782.197448,0.0,0.0,-0.011896256,0.004555781
1718737782.198622,0.0,0.0,-0.011895985,0.001760293
1718737782.199766,0.0,0.0,-0.011889718,0.008690597
1718737782.20035,0.0,0.0,-0.011883702,0.006220349
1718737782.201475,0.0,0.0,-0.011878349,0.00586633
1718737782.202645,0.0,0.0,-0.011876138,-0.001648134
1718737782.203799,0.0,0.0,-0.011868695,-0.000113506
1718737782.204463,0.0,0.0,-0.011858128,0.001660761
1718737782.205579,0.0,0.0,-0.011846807,0.002779176
1718737782.206763,0.0,0.0,-0.011836323,0.003315982
1718737782.207952,0.0,0.0,-0.011827572,0.003414483
1718737782.208553,0.0,0.0,-0.011820951,0.003187167
1718737782.209678,0.0,0.0,-0.011816528,0.002715782
1718737782.210832,0.0,0.0,-0.011814178,0.002061843
1718737782.21143,0.0,0.0,-0.011813668,0.001274741
1718737782.212573,0.0,0.0,-0.011814729,0.000396494
1718737782.213724,0.0,0.0,-0.01181709,-0.000535881
1718737782.21458,0.0,0.0,-0.011820507,-0.001489413
1718737782.215728,0.0,0.0,-0.011824773,-0.002434967
1718737782.216908,0.0,0.0,-0.011829723,-0.003347361
1718737782.217502,0.0,0.0,-0.011835229,-0.004205565
1718737782.218639,0.0,0.0,-0.011841195,-0.004992874
1718737782.219799,0.0,0.0,-0.011847547,-0.005696968
1718737782.220361,0.0,0.0,-0.01185423,-0.006309843
1718737782.221501,0.0,0.0,-0.011861195,-0.006827605
1718737782.222747,0.0,0.0,-0.0118684,-0.00725015
1718737782.223926,0.0,0.0,-0.011875801,-0.007580719
1718737782.22452,0.0,0.0,-0.011883355,-0.00782539
1718737782.225665,0.0,0.0,-0.011891021,-0.007992501
1718737782.226876,0.0,0.0,-0.011898754,-0.008092054
1718737782.227491,0.0,0.0,-0.011906516,-0.00813511
1718737782.228578,0.0,0.0,-0.01191427,-0.008133214
1718737782.229727,0.0,0.0,-0.011921985,-0.008097853
1718737782.230884,0.0,0.0,-0.011929637,-0.008039989
1718737782.231579,0.0,0.0,-0.011937211,-0.007969648
1718737782.232635,0.0,0.0,-0.011944696,-0.007895608
1718737782.233899,0.0,0.0,-0.011949041,-0.006601859
1718737782.234416,0.0,0.0,-0.011958742,0.014209957
1718737782.235553,0.0,0.0,-0.011910745,0.00739642
1718737782.236688,0.0,0.0,-0.011916139,-0.002844402
1718737782.237871,0.0,0.0,-0.011931895,-0.00543761
1718737782.238506,0.0,0.0,-0.011950102,-0.006639506
1718737782.239776,0.0,0.0,-0.011968052,-0.007395196
1718737782.240895,0.0,0.0,-0.011984489,-0.007925532
1718737782.241507,0.0,0.0,-0.011998882,-0.008305481
1718737782.242657,0.0,0.0,-0.012011139,-0.008566003
1718737782.243783,0.0,0.0,-0.012021439,-0.008722035
1718737782.244391,0.0,0.0,-0.012030107,-0.008782783
1718737782.245538,0.0,0.0,-0.012037515,-0.008755939
1718737782.24669,0.0,0.0,-0.012044022,-0.008649404
1718737782.247833,0.0,0.0,-0.012049936,-0.008471899
1718737782.248427,0.0,0.0,-0.01205549,-0.008233049
1718737782.249572,0.0,0.0,-0.012060845,-0.007943193
1718737782.250722,0.0,0.0,-0.012066093,-0.007613078
1718737782.251878,0.0,0.0,-0.012071268,-0.007253481
1718737782.25246,0.0,0.0,-0.012076366,-0.00687484
1718737782.253602,0.0,0.0,-0.012084984,-0.008628154
1718737782.254757,0.0,0.0,-0.012086667,-0.000371969
1718737782.255944,0.0,0.0,-0.012087669,-0.001633968
1718737782.256588,0.0,0.0,-0.012087833,-0.002411572
1718737782.257795,0.0,0.0,-0.012087146,-0.00206028
1718737782.258899,0.0,0.0,-0.012085584,-0.000793789
1718737782.259487,0.0,0.0,-0.012083029,0.001135924
1718737782.26063,0.0,0.0,-0.012079281,0.003519701
1718737782.26178,0.0,0.0,-0.012074099,0.006186747
1718737782.262918,0.0,0.0,-0.012067243,0.008993808
1718737782.2635,0.0,0.0,-0.012058894,0.013554701
1718737782.26464,0.0,0.0,-0.012051493,0.009654163
1718737782.265808,0.0,0.0,-0.012036333,0.013890984
1718737782.266932,0.0,0.0,-0.012015649,0.017409319
1718737782.267522,0.0,0.0,-0.011992219,0.019418686
1718737782.268665,0.0,0.0,-0.011968232,0.020098694
1718737782.269837,0.0,0.0,-0.011945267,0.019694734
1718737782.270413,0.0,0.0,-0.011924412,0.01842242
1718737782.2717,0.0,0.0,-0.011906374,0.016469206
1718737782.272903,0.0,0.0,-0.011891571,0.014003833
1718737782.273489,0.0,0.0,-0.011880198,0.011181901
1718737782.274629,0.0,0.0,-0.011872282,0.008147534
1718737782.27577,0.0,0.0,-0.011867719,0.005032686
1718737782.276915,0.0,0.0,-0.011866314,0.001955393
1718737782.277501,0.0,0.0,-0.011867797,-0.000982141
1718737782.278644,0.0,0.0,-0.011871854,-0.00369514
1718737782.279825,0.0,0.0,-0.011878135,-0.006117273
1718737782.280925,0.0,0.0,-0.011886277,-0.008200982
1718737782.28151,0.0,0.0,-0.011895906,-0.009917125
1718737782.282668,0.0,0.0,-0.01190666,-0.011253983
1718737782.2838,0.0,0.0,-0.011918189,-0.012215719
1718737782.284941,0.0,0.0,-0.011930164,-0.012820389
1718737782.285537,0.0,0.0,-0.011942292,-0.013097645
1718737782.286746,0.0,0.0,-0.011954312,-0.013086233
1718737782.287874,0.0,0.0,-0.011966006,-0.012831407
1718737782.288465,0.0,0.0,-0.011977201,-0.01238238
1718737782.289739,0.0,0.0,-0.011987768,-0.011789892
1718737782.290868,0.0,0.0,-0.011997624,-0.011103993
1718737782.291543,0.0,0.0,-0.012034882,-0.009531978
1718737782.292715,0.0,0.0,-0.012009857,-0.022992104
1718737782.293893,0.0,0.0,-0.012039278,-0.036080878
1718737782.294506,0.0,0.0,-0.01207915,-0.039632364
1718737782.295713,0.0,0.0,-0.012118899,-0.039774191
1718737782.296907,0.0,0.0,-0.012142573,-0.02038894
1718737782.297521,0.0,0.0,-0.012161421,-0.012917134
1718737782.298698,0.0,0.0,-0.012176798,-0.008627252
1718737782.299875,0.0,0.0,-0.012188769,-0.005742832
1718737782.300492,0.0,0.0,-0.012197443,-0.003782563
1718737782.301674,0.0,0.0,-0.012203159,-0.002536649
1718737782.302846,0.0,0.0,-0.012206463,-0.001882061
1718737782.303498,0.0,0.0,-0.012208029,-0.001726768
1718737782.304655,0.0,0.0,-0.012208576,-0.001988067
1718737782.306101,0.0,0.0,-0.012208789,-0.002584471
1718737782.306575,0.0,0.0,-0.012209268,-0.00343381
1718737782.307769,0.0,0.0,-0.012210486,-0.004454149
1718737782.308946,0.0,0.0,-0.012212782,-0.005565872
1718737782.309673,0.0,0.0,-0.012216351,-0.006694057
1718737782.31082,0.0,0.0,-0.012221258,-0.007770692
1718737782.311983,0.0,0.0,-0.012227458,-0.00873652
1718737782.312578,0.0,0.0,-0.012234812,-0.009542395
1718737782.313691,0.0,0.0,-0.012243114,-0.010150116
1718737782.314968,0.0,0.0,-0.012252109,-0.010532755
1718737782.315563,0.0,0.0,-0.012261519,-0.010674514
1718737782.316669,0.0,0.0,-0.012271056,-0.010570168
1718737782.317882,0.0,0.0,-0.012280437,-0.01022416
1718737782.319068,0.0,0.0,-0.0122894,-0.009649423
1718737782.319694,0.0,0.0,-0.012297708,-0.008866011
1718737782.320984,0.0,0.0,-0.012305159,-0.0078996
1718737782.32162,0.0,0.0,-0.012315328,-0.009278369
1718737782.322794,0.0,0.0,-0.012317367,-9.9692e-05
1718737782.323989,0.0,0.0,-0.012317892,-0.00050072
1718737782.32464,0.0,0.0,-0.012316702,-0.000309616
1718737782.325799,0.0,0.0,-0.012313716,0.00107761
1718737782.326298,2.0,0.0,-0.012313716,0.00107761
1718737782.326982,2.0,0.0,-0.012308876,0.003410745
1718737782.327591,2.0,0.0,-0.012302065,0.006407425
1718737782.328791,2.0,0.0,-0.012293114,0.009832509
1718737782.32999,2.0,0.0,-0.012281836,0.013493031
1718737782.330645,2.0,0.0,-0.012268377,0.018933339
1718737782.331838,2.0,0.0,-0.012255506,0.015923919
1718737782.333011,2.0,0.0,-0.012234447,0.021107496
1718737782.333629,2.0,0.0,-0.01220735,0.025541856
1718737782.334821,2.0,0.0,-0.01217694,0.028414116
1718737782.33601,2.0,0.0,-0.012145388,0.029888776
1718737782.336639,2.0,0.0,-0.012114288,0.030199823
1718737782.337876,2.0,0.0,-0.012084772,0.029554522
1718737782.339029,2.0,0.0,-0.012057614,0.028134919
1718737782.33964,2.0,0.0,-0.012033311,0.026107164
1718737782.340886,2.0,0.0,-0.012012146,0.023626892
1718737782.342073,2.0,0.0,-0.011994233,0.020840602
1718737782.34269,2.0,0.0,-0.011979561,0.017884588
1718737782.343885,2.0,0.0,-0.011994527,0.015625973
1718737782.34505,2.0,0.0,-0.011953394,-0.000911674
1718737782.345662,2.0,0.0,-0.011968431,-0.017132369
1718737782.346837,2.0,0.0,-0.011996619,-0.023739067
1718737782.348005,2.0,0.0,-0.012029687,-0.027542268
1718737782.348646,2.0,0.0,-0.012064461,-0.029770989
1718737782.349827,2.0,0.0,-0.012099127,-0.030841306
1718737782.351051,2.0,0.0,-0.012132523,-0.030991468
1718737782.351693,2.0,0.0,-0.012163912,-0.03040472
1718737782.352817,2.0,0.0,-0.012192865,-0.029243811
1718737782.353997,2.0,0.0,-0.01221635,-0.02653549
1718737782.354569,2.0,0.0,-0.012221249,-0.004991773
1718737782.35572,2.0,0.0,-0.012220545,0.003830553
1718737782.356939,2.0,0.0,-0.012216542,0.008947066
1718737782.357537,2.0,0.0,-0.012209889,0.012236827
1718737782.358672,2.0,0.0,-0.012201044,0.014240012
1718737782.35981,2.0,0.0,-0.012190527,0.015211766
1718737782.360943,2.0,0.0,-0.012178951,0.015317141
1718737782.361524,2.0,0.0,-0.012166988,0.014690352
1718737782.362692,2.0,0.0,-0.012155314,0.0134571
1718737782.363824,2.0,0.0,-0.012144556,0.011742091
1718737782.36497,2.0,0.0,-0.01213525,0.009669863
1718737782.365558,2.0,0.0,-0.012127816,0.007362657
1718737782.366704,2.0,0.0,-0.012122538,0.004937204
1718737782.367856,2.0,0.0,-0.012119562,0.002501402
1718737782.369006,2.0,0.0,-0.012118907,0.000151362
1718737782.369648,2.0,0.0,-0.012120475,-0.002030902
1718737782.370747,2.0,0.0,-0.012124071,-0.00397906
1718737782.371895,2.0,0.0,-0.012129427,-0.005643281
1718737782.37315,2.0,0.0,-0.012136226,-0.006990332
1718737782.373742,2.0,0.0,-0.012144118,-0.008003021
1718737782.374895,2.0,0.0,-0.012152746,-0.008679069
1718737782.376083,2.0,0.0,-0.012161762,-0.009029526
1718737782.376674,2.0,0.0,-0.012170839,-0.009076839
1718737782.377831,2.0,0.0,-0.012179687,-0.008852691
1718737782.378975,2.0,0.0,-0.012188057,-0.008395713
1718737782.379561,2.0,0.0,-0.012195745,-0.007749176
1718737782.380709,2.0,0.0,-0.012202601,-0.006958767
1718737782.381846,2.0,0.0,-0.012212172,-0.008245891
1718737782.38299,2.0,0.0,-0.012213931,0.000598552
1718737782.383583,2.0,0.0,-0.012214235,-0.000111088
1718737782.384723,2.0,0.0,-0.012212992,-0.000339422
1718737782.385869,2.0,0.0,-0.012210274,0.000528626
1718737782.387011,2.0,0.0,-0.012206163,0.002254737
1718737782.387663,2.0,0.0,-0.012200657,0.004567775
1718737782.388932,2.0,0.0,-0.012193675,0.007244856
1718737782.390343,2.0,0.0,-0.01218509,0.010106687
1718737782.390793,2.0,0.0,-0.012174779,0.013006438
1718737782.392006,2.0,0.0,-0.012162675,0.017754898
1718737782.39268,2.0,0.0,-0.012151436,0.014048356
1718737782.393951,2.0,0.0,-0.012132799,0.0180985
1718737782.395219,2.0,0.0,-0.012109052,0.021339105
1718737782.395925,2.0,0.0,-0.012082968,0.023029075
1718737782.397212,2.0,0.0,-0.01205672,0.02336307
1718737782.397881,2.0,0.0,-0.012031875,0.022596582
1718737782.399027,2.0,0.0,-0.012009507,0.020954935
1718737782.399613,2.0,0.0,-0.011990307,0.018635241
1718737782.400765,2.0,0.0,-0.011974675,0.015815388
1718737782.401934,2.0,0.0,-0.011962783,0.012659137
1718737782.403061,2.0,0.0,-0.011954632,0.009317448
1718737782.403646,2.0,0.0,-0.011950091,0.005927574
1718737782.404878,2.0,0.0,-0.011948929,0.002611243
1718737782.406068,2.0,0.0,-0.011950844,-0.00052724
1718737782.406727,2.0,0.0,-0.011955484,-0.003402497
1718737782.407918,2.0,0.0,-0.011962467,-0.005948945
1718737782.40909,2.0,0.0,-0.011971391,-0.008120934
1718737782.40973,2.0,0.0,-0.011981855,-0.009892182
1718737782.410889,2.0,0.0,-0.011993463,-0.011254547
1718737782.412095,2.0,0.0,-0.012005839,-0.012216259
1718737782.412708,2.0,0.0,-0.012018633,-0.01279971
1718737782.413978,2.0,0.0,-0.012031532,-0.013038947
1718737782.415101,2.0,0.0,-0.012041172,-0.011742029
1718737782.415693,2.0,0.0,-0.012034626,0.008305491
1718737782.416831,2.0,0.0,-0.012024652,0.015699172
1718737782.417983,2.0,0.0,-0.012035587,0.020236453
1718737782.418562,2.0,0.0,-0.01198727,0.008603229
1718737782.41974,2.0,0.0,-0.011994533,-0.004057189
1718737782.420856,2.0,0.0,-0.012012081,-0.007854564
1718737782.421995,2.0,0.0,-0.012031786,-0.009689846
1718737782.423146,2.0,0.0,-0.012051025,-0.010728933
1718737782.423747,2.0,0.0,-0.012068661,-0.011305856
1718737782.424943,2.0,0.0,-0.012084241,-0.011566482
1718737782.426089,2.0,0.0,-0.012097709,-0.011592742
1718737782.426239,-2.0,0.0,-0.012097709,-0.011592742
1718737782.427282,-2.0,0.0,-0.012109231,-0.011440045
1718737782.427892,-2.0,0.0,-0.012119087,-0.011151594
1718737782.429036,-2.0,0.0,-0.012127595,-0.01076417
1718737782.42962,-2.0,0.0,-0.01213506,-0.010310315
1718737782.430795,-2.0,0.0,-0.012141746,-0.009818983
1718737782.431948,-2.0,0.0,-0.012147866,-0.009315534
1718737782.433068,-2.0,0.0,-0.012153579,-0.008821524
1718737782.433645,-2.0,0.0,-0.012162588,-0.01005117
1718737782.434779,-2.0,0.0,-0.012164392,-0.00137098
1718737782.435907,-2.0,0.0,-0.012165355,-0.002610351
1718737782.437053,-2.0,0.0,-0.012166594,-0.002242314
1718737782.438167,-2.0,0.0,-0.012170179,-0.00888566
1718737782.438736,-2.0,0.0,-0.012167222,-0.00610147
1718737782.439858,-2.0,0.0,-0.012159822,-0.003071249
1718737782.441018,-2.0,0.0,-0.012150448,-0.000774773
1718737782.441635,-2.0,0.0,-0.012140828,0.000827414
1718737782.44274,-2.0,0.0,-0.012132005,0.001862852
1718737782.443854,-2.0,0.0,-0.012124524,0.002438453
1718737782.444991,-2.0,0.0,-0.012118598,0.002637585
1718737782.445586,-2.0,0.0,-0.012114236,0.00252921
1718737782.446737,-2.0,0.0,-0.012111327,0.002174981
1718737782.447893,-2.0,0.0,-0.012109706,0.001632994
1718737782.449087,-2.0,0.0,-0.012109188,0.00095911
1718737782.449709,-2.0,0.0,-0.012109594,0.000206848
1718737782.4509,-2.0,0.0,-0.012110758,-0.000573453
1718737782.452075,-2.0,0.0,-0.012112536,-0.001335715
1718737782.452679,-2.0,0.0,-0.0121148,-0.002039185
1718737782.453835,-2.0,0.0,-0.012117437,-0.002649336
1718737782.454938,-2.0,0.0,-0.01212034,-0.003138506
1718737782.456074,-2.0,0.0,-0.012123405,-0.003486249
1718737782.457217,-2.0,0.0,-0.01212653,-0.003679395
1718737782.457814,-2.0,0.0,-0.012129608,-0.003711831
1718737782.458978,-2.0,0.0,-0.012132531,-0.003584034
1718737782.460088,-2.0,0.0,-0.012135192,-0.003302401
1718737782.461236,-2.0,0.0,-0.012137485,-0.00287842
1718737782.461879,-2.0,0.0,-0.012139311,-0.002327725
1718737782.463062,-2.0,0.0,-0.012140581,-0.001669091
1718737782.464169,-2.0,0.0,-0.012141217,-0.000923415
1718737782.465344,-2.0,0.0,-0.012141159,-0.00011272
1718737782.465864,-2.0,0.0,-0.012140364,0.000740779
1718737782.46709,-2.0,0.0,-0.012138805,0.001615511
1718737782.468245,-2.0,0.0,-0.012136476,0.002491272
1718737782.468785,-2.0,0.0,-0.012133388,0.003349815
1718737782.469922,-2.0,0.0,-0.012129568,0.004175295
1718737782.47106,-2.0,0.0,-0.012125057,0.004954575
1718737782.472193,-2.0,0.0,-0.012119906,0.005677386
1718737782.472745,-2.0,0.0,-0.012114176,0.00633636
1718737782.473891,-2.0,0.0,-0.012107934,0.006926946
1718737782.475046,-2.0,0.0,-0.012101247,0.007447223
1718737782.476198,-2.0,0.0,-0.012094186,0.007897629
1718737782.476784,-2.0,0.0,-0.012086818,0.008280636
1718737782.477913,-2.0,0.0,-0.012076935,0.0094051
1718737782.479072,-2.0,0.0,-0.012062965,0.028744567
1718737782.480254,-2.0,0.0,-0.012004832,0.022708542
1718737782.480795,-2.0,0.0,-0.011996238,0.012998651
1718737782.481964,-2.0,0.0,-0.011997095,0.01061971
1718737782.483078,-2.0,0.0,-0.012000114,0.009558633
1718737782.484265,-2.0,0.0,-0.012002827,0.00891821
1718737782.484786,-2.0,0.0,-0.012004099,0.008491298
1718737782.485993,-2.0,0.0,-0.012003457,0.008206722
1718737782.487126,-2.0,0.0,-0.012000833,0.008033033
1718737782.488256,-2.0,0.0,-0.011996401,0.007952509
1718737782.488866,-2.0,0.0,-0.011990472,0.007951794
1718737782.490034,-2.0,0.0,-0.011983401,0.008018234
1718737782.491112,-2.0,0.0,-0.011975534,0.008138543
1718737782.492256,-2.0,0.0,-0.011967169,0.008298515
1718737782.492848,-2.0,0.0,-0.011958546,0.008483208
1718737782.493991,-2.0,0.0,-0.011949837,0.008677365
1718737782.495127,-2.0,0.0,-0.011941156,0.008865916
1718737782.496281,-2.0,0.0,-0.011932567,0.009034494
1718737782.496854,-2.0,0.0,-0.011924103,0.00916992
1718737782.497996,-2.0,0.0,-0.01191577,0.009260622
1718737782.499147,-2.0,0.0,-0.011907565,0.009296965
1718737782.499727,-2.0,0.0,-0.011900437,0.010671386
1718737782.500857,-2.0,0.0,-0.011896542,0.003650108
1718737782.502005,-2.0,0.0,-0.011886907,0.005106577
1718737782.503143,-2.0,0.0,-0.011873769,0.006059832
1718737782.504282,-2.0,0.0,-0.01185987,0.005741683
1718737782.504867,-2.0,0.0,-0.011847279,0.004368652
1718737782.506009,-2.0,0.0,-0.011837384,0.002215785
1718737782.507153,-2.0,0.0,-0.011831016,-0.000483664
1718737782.508306,-2.0,0.0,-0.011828593,-0.003536931
1718737782.508899,-2.0,0.0,-0.011830226,-0.006781202
1718737782.510046,-2.0,0.0,-0.01183963,-0.012529275
1718737782.51119,-2.0,0.0,-0.011845653,-0.007654306
1718737782.511765,-2.0,0.0,-0.011854606,-0.012445901
1718737782.512934,-2.0,0.0,-0.011865966,-0.016451341
1718737782.5141,-2.0,0.0,-0.011879272,-0.018937253
1718737782.515193,-2.0,0.0,-0.011894018,-0.020077022
1718737782.516346,-2.0,0.0,-0.011909595,-0.020100272
1718737782.516941,-2.0,0.0,-0.01192532,-0.019209247
1718737782.518091,-2.0,0.0,-0.011940495,-0.017582478
1718737782.519251,-2.0,0.0,-0.011954457,-0.01538422
1718737782.519956,-2.0,0.0,-0.011963465,-0.011402034
1718737782.520991,-2.0,0.0,-0.011954023,0.011280855
1718737782.522136,-2.0,0.0,-0.011938837,0.021257753
1718737782.523274,-2.0,0.0,-0.011919999,0.02750228
1718737782.523855,-2.0,0.0,-0.011897955,0.031891875
1718737782.52501,-2.0,0.0,-0.011872987,0.034964597
1718737782.52617,-2.0,0.0,-0.011880165,0.037858419
1718737782.526371,-2.0,0.0,-0.011880165,0.037858419
1718737782.527289,-2.0,0.0,-0.011814707,0.023741772
1718737782.527887,-2.0,0.0,-0.011806312,0.009593925
1718737782.529,-2.0,0.0,-0.011809274,0.004793807
1718737782.530176,-2.0,0.0,-0.011815531,0.00217002
1718737782.531326,-2.0,0.0,-0.011822547,0.000477567
1718737782.531916,-2.0,0.0,-0.011829188,-0.00063998
1718737782.533013,-2.0,0.0,-0.011834913,-0.001332124
1718737782.534157,-2.0,0.0,-0.0118395,-0.00167981
1718737782.534757,-2.0,0.0,-0.011842905,-0.001738705
1718737782.535896,-2.0,0.0,-0.011845183,-0.001555802
1718737782.537031,-2.0,0.0,-0.011846435,-0.001175796
1718737782.538166,-2.0,0.0,-0.011846774,-0.000643031
1718737782.538784,-2.0,0.0,-0.011846304,-1.478e-06
1718737782.539955,-2.0,0.0,-0.011845121,0.000706122
1718737782.54109,-2.0,0.0,-0.011843304,0.001439388
1718737782.542243,-2.0,0.0,-0.011840921,0.002161436
1718737782.542831,-2.0,0.0,-0.011838036,0.002839866
1718737782.544044,-2.0,0.0,-0.01183471,0.003447528
1718737782.545162,-2.0,0.0,-0.011831007,0.003963029
1718737782.545734,-2.0,0.0,-0.011826998,0.00437098
1718737782.54686,-2.0,0.0,-0.011822757,0.004661985
1718737782.548049,-2.0,0.0,-0.011818366,0.004832392
1718737782.549162,-2.0,0.0,-0.01181391,0.004883855
1718737782.550303,-2.0,0.0,-0.011809472,0.004822717
1718737782.550926,-2.0,0.0,-0.011805135,0.004659285
1718737782.552019,-2.0,0.0,-0.011800976,0.00440701
1718737782.553176,-2.0,0.0,-0.011797061,0.00408164
1718737782.554335,-2.0,0.0,-0.011793445,0.003700368
1718737782.554923,-2.0,0.0,-0.01179017,0.003281013
1718737782.556036,-2.0,0.0,-0.01178726,0.002841262
1718737782.557194,-2.0,0.0,-0.011784728,0.002398008
1718737782.558058,-2.0,0.0,-0.011782569,0.001966782
1718737782.559194,-2.0,0.0,-0.011780766,0.001561306
1718737782.560461,-2.0,0.0,-0.011779289,0.001193163
1718737782.561004,-2.0,0.0,-0.011778099,0.000871591
1718737782.562172,-2.0,0.0,-0.011777148,0.000603388
1718737782.563314,-2.0,0.0,-0.011776383,0.000392924
1718737782.563897,-2.0,0.0,-0.011775751,0.000242248
1718737782.565037,-2.0,0.0,-0.011775195,0.000151275
1718737782.566199,-2.0,0.0,-0.011775,0.001832571
1718737782.567405,-2.0,0.0,-0.011777478,-0.004488985
1718737782.567976,-2.0,0.0,-0.011774358,-0.002805983
1718737782.569161,-2.0,0.0,-0.011767774,-0.001523701
1718737782.57028,-2.0,0.0,-0.011760264,-0.001355374
1718737782.570868,-2.0,0.0,-0.011753703,-0.002095983
1718737782.572016,-2.0,0.0,-0.011749309,-0.003492645
1718737782.573162,-2.0,0.0,-0.011747781,-0.005335341
1718737782.573763,-2.0,0.0,-0.011749439,-0.007453726
1718737782.574977,-2.0,0.0,-0.011754323,-0.009706196
1718737782.576117,-2.0,0.0,-0.011762285,-0.011972498
1718737782.577324,-2.0,0.0,-0.011773044,-0.01415001
1718737782.577857,-2.0,0.0,-0.01178624,-0.016152291
1718737782.579005,-2.0,0.0,-0.011801464,-0.017908706
1718737782.580147,-2.0,0.0,-0.011815539,-0.018301781
1718737782.580741,-2.0,0.0,-0.011814409,0.000733063
1718737782.581969,-2.0,0.0,-0.011810856,0.006959804
1718737782.583066,-2.0,0.0,-0.011806694,0.009740944
1718737782.584208,-2.0,0.0,-0.011801994,0.01110969
1718737782.585381,-2.0,0.0,-0.011796606,0.011693488
1718737782.58594,-2.0,0.0,-0.01179044,0.011799076
1718737782.587141,-2.0,0.0,-0.011783523,0.011613383
1718737782.588259,-2.0,0.0,-0.011775973,0.011266202
1718737782.588888,-2.0,0.0,-0.01176796,0.01085593
1718737782.589997,-2.0,0.0,-0.011759662,0.010460777
1718737782.591151,-2.0,0.0,-0.011751231,0.010143498
1718737782.592296,-2.0,0.0,-0.011742767,0.009953298
1718737782.592878,-2.0,0.0,-0.011738074,0.007290817
1718737782.594057,-2.0,0.0,-0.011726727,0.015059666
1718737782.595175,-2.0,0.0,-0.011714918,0.013744367
1718737782.596329,-2.0,0.0,-0.01170241,0.013147376
1718737782.596921,-2.0,0.0,-0.011689049,0.013883076
1718737782.598065,-2.0,0.0,-0.011674654,0.015719059
1718737782.599205,-2.0,0.0,-0.011658943,0.018382222
1718737782.599799,-2.0,0.0,-0.011641565,0.021636666
1718737782.600996,-2.0,0.0,-0.01162215,0.025279761
1718737782.602139,-2.0,0.0,-0.01164878,0.030111665
1718737782.603273,-2.0,0.0,-0.011584435,0.017946511
1718737782.603874,-2.0,0.0,-0.011579666,0.006951795
1718737782.605001,-2.0,0.0,-0.011584973,0.00585614
1718737782.606154,-2.0,0.0,-0.011591146,0.007215738
1718737782.607307,-2.0,0.0,-0.011595026,0.009564562
1718737782.607906,-2.0,0.0,-0.011595133,0.012356258
1718737782.609064,-2.0,0.0,-0.011591562,0.016863393
1718737782.610243,-2.0,0.0,-0.01158607,0.013144746
1718737782.611501,-2.0,0.0,-0.011570351,0.0173407
1718737782.612046,-2.0,0.0,-0.011547184,0.020750806
1718737782.613204,-2.0,0.0,-0.011519974,0.022555061
1718737782.614365,-2.0,0.0,-0.011491521,0.022906398
1718737782.614957,-2.0,0.0,-0.011463944,0.022035813
1718737782.61613,-2.0,0.0,-0.011438773,0.020155009
1718737782.617278,-2.0,0.0,-0.011417054,0.017455897
1718737782.617942,-2.0,0.0,-0.011399449,0.014118284
1718737782.619105,-2.0,0.0,-0.011386313,0.010313986
1718737782.620239,-2.0,0.0,-0.011377765,0.006207194
1718737782.621384,-2.0,0.0,-0.011373743,0.001952594
1718737782.621973,-2.0,0.0,-0.011374045,-0.002307471
1718737782.623118,-2.0,0.0,-0.011378372,-0.006445921
1718737782.624288,-2.0,0.0,-0.011386354,-0.010353438
1718737782.624858,-2.0,0.0,-0.011397573,-0.013940272
1718737782.62604,-2.0,0.0,-0.011411586,-0.017137243
1718737782.626254,-2.0,0.0,-0.011411586,-0.017137243
1718737782.627198,-2.0,0.0,-0.011427938,-0.019895908
1718737782.627843,-2.0,0.0,-0.011446175,-0.02218797
1718737782.628962,-2.0,0.0,-0.011465855,-0.024003986
1718737782.630112,-2.0,0.0,-0.011486556,-0.02535151
1718737782.631326,-2.0,0.0,-0.011507886,-0.026252787
1718737782.631929,-2.0,0.0,-0.011529487,-0.026742142
1718737782.633106,-2.0,0.0,-0.011554889,-0.029199716
1718737782.634227,-2.0,0.0,-0.011572993,-0.020900069
1718737782.635369,-2.0,0.0,-0.011587342,-0.021149832
1718737782.635976,-2.0,0.0,-0.011585074,-0.002343157
1718737782.63711,-2.0,0.0,-0.011578681,0.005088609
1718737782.638259,-2.0,0.0,-0.011570049,0.009890434
1718737782.638896,-2.0,0.0,-0.011559347,0.013735933
1718737782.640047,-2.0,0.0,-0.011546501,0.016994319
1718737782.641179,-2.0,0.0,-0.011531473,0.01977829
1718737782.641781,-2.0,0.0,-0.011514332,0.022126594
1718737782.642928,-2.0,0.0,-0.011495256,0.024055971
1718737782.644054,-2.0,0.0,-0.011474511,0.025580804
1718737782.645227,-2.0,0.0,-0.011452427,0.02672078
1718737782.64582,-2.0,0.0,-0.011429361,0.027503211
1718737782.646976,-2.0,0.0,-0.011405672,0.027962825
1718737782.648119,-2.0,0.0,-0.011381701,0.028140352
1718737782.649225,-2.0,0.0,-0.011357747,0.028080559
1718737782.64989,-2.0,0.0,-0.011334062,0.027830145
1718737782.651034,-2.0,0.0,-0.011310839,0.027435673
1718737782.652185,-2.0,0.0,-0.011288216,0.026941707
1718737782.65278,-2.0,0.0,-0.011266275,0.026389218
1718737782.653907,-2.0,0.0,-0.011245046,0.025814309
1718737782.655213,-2.0,0.0,-0.011224519,0.025247284
1718737782.656429,-2.0,0.0,-0.011204651,0.024712058
1718737782.656973,-2.0,0.0,-0.011185373,0.024225899
1718737782.658131,-2.0,0.0,-0.011166599,0.023799469
1718737782.659264,-2.0,0.0,-0.01114824,0.023437135
1718737782.659839,-2.0,0.0,-0.011130203,0.023137501
1718737782.660984,-2.0,0.0,-0.011112404,0.022894121
1718737782.662143,-2.0,0.0,-0.011095918,0.024238501
1718737782.663407,-2.0,0.0,-0.011082225,0.01692986
1718737782.663937,-2.0,0.0,-0.011062008,0.018449766
1718737782.665061,-2.0,0.0,-0.011037722,0.01953158
1718737782.666199,-2.0,0.0,-0.011012341,0.019348875
1718737782.667349,-2.0,0.0,-0.010988112,0.018104227
1718737782.667919,-2.0,0.0,-0.010966543,0.01606096
1718737782.669066,-2.0,0.0,-0.010948545,0.013439495
1718737782.670226,-2.0,0.0,-0.010934587,0.010419529
1718737782.671391,-2.0,0.0,-0.010924812,0.007151658
1718737782.671957,-2.0,0.0,-0.010919139,0.003765378
1718737782.673113,-2.0,0.0,-0.010917332,0.0003731
1718737782.674271,-2.0,0.0,-0.010919061,-0.002928364
1718737782.674842,-2.0,0.0,-0.01092394,-0.006057546
1718737782.675963,-2.0,0.0,-0.010931562,-0.008948471
1718737782.677104,-2.0,0.0,-0.010941516,-0.011550718
1718737782.678346,-2.0,0.0,-0.010949489,-0.012248712
1718737782.678943,-2.0,0.0,-0.010943168,0.006171382
1718737782.680083,-2.0,0.0,-0.010935472,0.011838522
1718737782.681231,-2.0,0.0,-0.010928094,0.013991473
1718737782.681947,-2.0,0.0,-0.010920958,0.014667785
1718737782.683178,-2.0,0.0,-0.010913801,0.014495336
1718737782.684346,-2.0,0.0,-0.01092157,0.014284281
1718737782.684903,-2.0,0.0,-0.010874993,-0.000404411
1718737782.686042,-2.0,0.0,-0.010887519,-0.014348297
1718737782.687301,-2.0,0.0,-0.010911608,-0.019554782
1718737782.688436,-2.0,0.0,-0.010938812,-0.022389488
1718737782.689022,-2.0,0.0,-0.01096633,-0.023981153
1718737782.690292,-2.0,0.0,-0.010992804,-0.024692483
1718737782.691493,-2.0,0.0,-0.011017515,-0.024713777
1718737782.692105,-2.0,0.0,-0.011040108,-0.024179219
1718737782.693288,-2.0,0.0,-0.011060452,-0.02320121
1718737782.693889,-2.0,0.0,-0.011078556,-0.021882186
1718737782.695091,-2.0,0.0,-0.011094507,-0.020318015
1718737782.696275,-2.0,0.0,-0.011108436,-0.018597977
1718737782.696964,-2.0,0.0,-0.011120495,-0.016803472
1718737782.698101,-2.0,0.0,-0.011130845,-0.015006444
1718737782.699275,-2.0,0.0,-0.011139651,-0.01326799
1718737782.699901,-2.0,0.0,-0.011147077,-0.011637366
1718737782.701065,-2.0,0.0,-0.011153286,-0.010151476
1718737782.702306,-2.0,0.0,-0.011158439,-0.008834859
1718737782.702948,-2.0,0.0,-0.011162694,-0.007700149
1718737782.704165,-2.0,0.0,-0.0111662,-0.006748939
1718737782.70534,-2.0,0.0,-0.011169101,-0.005972999
1718737782.706056,-2.0,0.0,-0.011171525,-0.005355751
1718737782.707178,-2.0,0.0,-0.011177428,-0.00726836
1718737782.708348,-2.0,0.0,-0.011176274,0.001014954
1718737782.708926,-2.0,0.0,-0.011174318,-0.000372303
1718737782.710077,-2.0,0.0,-0.011171558,-0.001306563
1718737782.711223,-2.0,0.0,-0.011168103,-0.001076287
1718737782.712377,-2.0,0.0,-0.011163988,0.000133462
1718737782.712966,-2.0,0.0,-0.011159087,0.002093846
1718737782.714156,-2.0,0.0,-0.011153136,0.004615245
1718737782.7153,-2.0,0.0,-0.011145794,0.007541971
1718737782.715885,-2.0,0.0,-0.011136697,0.010740825
1718737782.717034,-2.0,0.0,-0.011126448,0.015510652
1718737782.718186,-2.0,0.0,-0.011116816,0.012100838
1718737782.719333,-2.0,0.0,-0.011098779,0.017032888
1718737782.719993,-2.0,0.0,-0.011074415,0.021429773
1718737782.721141,-2.0,0.0,-0.011046421,0.024446409
1718737782.722276,-2.0,0.0,-0.011016928,0.026234088
1718737782.723416,-2.0,0.0,-0.010987473,0.027016141
1718737782.724003,-2.0,0.0,-0.010959111,0.02698749
1718737782.725155,-2.0,0.0,-0.010932531,0.026315347
1718737782.726298,2.0,0.0,-0.010932531,0.026315347
1718737782.726347,2.0,0.0,-0.01090814,0.025148834
1718737782.727462,2.0,0.0,-0.010886138,0.023624997
1718737782.728058,2.0,0.0,-0.010866566,0.02187092
1718737782.729255,2.0,0.0,-0.010849352,0.020003388
1718737782.730456,2.0,0.0,-0.010834333,0.018127402
1718737782.730973,2.0,0.0,-0.01082129,0.016334402
1718737782.732177,2.0,0.0,-0.010809959,0.014700716
1718737782.733364,2.0,0.0,-0.010800053,0.013286502
1718737782.734047,2.0,0.0,-0.01079127,0.012135279
1718737782.735244,2.0,0.0,-0.010783307,0.0112741
1718737782.736442,2.0,0.0,-0.010775868,0.010714299
1718737782.737043,2.0,0.0,-0.01076867,0.01045276
1718737782.738242,2.0,0.0,-0.010794708,0.011129991
1718737782.73945,2.0,0.0,-0.010748991,-0.003285676
1718737782.740071,2.0,0.0,-0.010761727,-0.015799317
1718737782.741274,2.0,0.0,-0.010785626,-0.019196947
1718737782.742451,2.0,0.0,-0.010811843,-0.019974748
1718737782.743075,2.0,0.0,-0.010837205,-0.019401179
1718737782.74424,2.0,0.0,-0.010860073,-0.017955459
1718737782.745421,2.0,0.0,-0.010879556,-0.015925165
1718737782.746039,2.0,0.0,-0.010892836,-0.012795649
1718737782.74722,2.0,0.0,-0.010887627,0.008709079
1718737782.748468,2.0,0.0,-0.010876393,0.017835713
1718737782.74916,2.0,0.0,-0.010861261,0.023262219
1718737782.750349,2.0,0.0,-0.010842844,0.026820541
1718737782.751005,2.0,0.0,-0.010821649,0.029033799
1718737782.752193,2.0,0.0,-0.010798295,0.030154047
1718737782.753376,2.0,0.0,-0.010773519,0.030350161
1718737782.753993,2.0,0.0,-0.010748114,0.029763528
1718737782.755174,2.0,0.0,-0.010722871,0.028528425
1718737782.756336,2.0,0.0,-0.010698512,0.026778408
1718737782.756936,2.0,0.0,-0.010675644,0.024646436
1718737782.758117,2.0,0.0,-0.010654735,0.022262297
1718737782.759302,2.0,0.0,-0.010636098,0.019749127
1718737782.760471,2.0,0.0,-0.010619891,0.017219921
1718737782.76108,2.0,0.0,-0.010606129,0.014774523
1718737782.762253,2.0,0.0,-0.010594704,0.012497319
1718737782.76312,2.0,0.0,-0.010585404,0.010455722
1718737782.76435,2.0,0.0,-0.010577945,0.008699467
1718737782.765491,2.0,0.0,-0.010571991,0.00726066
1718737782.766101,2.0,0.0,-0.010567179,0.006154513
1718737782.767287,2.0,0.0,-0.010564766,0.006585514
1718737782.768481,2.0,0.0,-0.010565416,-0.000934711
1718737782.769674,2.0,0.0,-0.010559708,0.000443045
1718737782.770293,2.0,0.0,-0.010549768,0.001703259
1718737782.771478,2.0,0.0,-0.010538281,0.00198809
1718737782.772103,2.0,0.0,-0.010527259,0.001454275
1718737782.773271,2.0,0.0,-0.010518014,0.000321037
1718737782.774444,2.0,0.0,-0.010511312,-0.0012334
1718737782.775086,2.0,0.0,-0.010507518,-0.003069628
1718737782.776225,2.0,0.0,-0.01051064,-0.007575291
1718737782.777404,2.0,0.0,-0.010510025,-0.001872612
1718737782.778025,2.0,0.0,-0.010511326,-0.005619099
1718737782.779194,2.0,0.0,-0.010514266,-0.008806736
1718737782.780356,2.0,0.0,-0.010518687,-0.010687487
1718737782.780974,2.0,0.0,-0.010524346,-0.011427244
1718737782.782164,2.0,0.0,-0.010530844,-0.011244049
1718737782.783345,2.0,0.0,-0.010537662,-0.010323523
1718737782.784515,2.0,0.0,-0.010544226,-0.0088232
1718737782.785126,2.0,0.0,-0.010549971,-0.006882938
1718737782.786292,2.0,0.0,-0.010554392,-0.004631105
1718737782.787467,2.0,0.0,-0.01055708,-0.002186725
1718737782.788092,2.0,0.0,-0.01055774,0.000340831
1718737782.78925,2.0,0.0,-0.010556203,0.00285327
1718737782.790424,2.0,0.0,-0.010552424,0.005265082
1718737782.791037,2.0,0.0,-0.010546466,0.007505008
1718737782.792222,2.0,0.0,-0.010538485,0.009517013
1718737782.793377,2.0,0.0,-0.010528711,0.011260663
1718737782.794091,2.0,0.0,-0.010517426,0.01271089
1718737782.795232,2.0,0.0,-0.01050494,0.013857198
1718737782.796351,2.0,0.0,-0.010491574,0.014702378
1718737782.796945,2.0,0.0,-0.01047452,0.016375065
1718737782.798098,2.0,0.0,-0.010441907,0.036350982
1718737782.799232,2.0,0.0,-0.010406852,0.043319483
1718737782.80038,2.0,0.0,-0.010371537,0.04634487
1718737782.800972,2.0,0.0,-0.010336359,0.047470976
1718737782.802114,2.0,0.0,-0.010301451,0.047369386
1718737782.803255,2.0,0.0,-0.010266965,0.046404853
1718737782.804402,2.0,0.0,-0.010253579,0.045300822
1718737782.804991,2.0,0.0,-0.010179586,0.029116024
1718737782.806141,2.0,0.0,-0.010167488,0.014569966
1718737782.807312,2.0,0.0,-0.010168656,0.008462803
1718737782.807897,2.0,0.0,-0.010174329,0.004765166
1718737782.80906,2.0,0.0,-0.010181469,0.002413605
1718737782.810186,2.0,0.0,-0.010188472,0.001071961
1718737782.811343,2.0,0.0,-0.010194371,0.000562577
1718737782.81191,2.0,0.0,-0.010198575,0.000753245
1718737782.813063,2.0,0.0,-0.010200738,0.001524079
1718737782.81421,2.0,0.0,-0.010200689,0.002756959
1718737782.815356,2.0,0.0,-0.010198374,0.004333615
1718737782.816498,2.0,0.0,-0.010193824,0.006137264
1718737782.817086,2.0,0.0,-0.010187132,0.008055572
1718737782.818268,2.0,0.0,-0.01017844,0.009983882
1718737782.819386,2.0,0.0,-0.010167927,0.011828154
1718737782.819985,2.0,0.0,-0.010155803,0.013507367
1718737782.821122,2.0,0.0,-0.010142305,0.014955244
1718737782.822268,2.0,0.0,-0.010127692,0.016121263
1718737782.823108,2.0,0.0,-0.010112236,0.016970962
1718737782.82425,2.0,0.0,-0.010096219,0.017485603
1718737782.825392,2.0,0.0,-0.010079924,0.017661246
1718737782.825991,2.0,0.0,-0.01006497,0.018995776
1718737782.826292,-2.0,0.0,-0.01006497,0.018995776
1718737782.827196,-2.0,0.0,-0.010052508,0.011644587
1718737782.828291,-2.0,0.0,-0.010033928,0.0124507
1718737782.828881,-2.0,0.0,-0.010011965,0.012634167
1718737782.830034,-2.0,0.0,-0.009989781,0.011440436
1718737782.831211,-2.0,0.0,-0.009969739,0.009121446
1718737782.832319,-2.0,0.0,-0.009953394,0.00599015
1718737782.833501,-2.0,0.0,-0.009941649,0.002316501
1718737782.834609,-2.0,0.0,-0.009938832,-0.004233285
1718737782.835193,-2.0,0.0,-0.009934724,-0.000827857
1718737782.83636,-2.0,0.0,-0.009934579,-0.006533703
1718737782.837476,-2.0,0.0,-0.009938081,-0.011597077
1718737782.838144,-2.0,0.0,-0.009944971,-0.015219744
1718737782.839306,-2.0,0.0,-0.009954821,-0.017519492
1718737782.840408,-2.0,0.0,-0.009966987,-0.018678315
1718737782.841119,-2.0,0.0,-0.009980672,-0.018858644
1718737782.84216,-2.0,0.0,-0.009995013,-0.018206886
1718737782.8433,-2.0,0.0,-0.010009159,-0.016862575
1718737782.84446,-2.0,0.0,-0.010022335,-0.014963097
1718737782.845045,-2.0,0.0,-0.010033889,-0.012644274
1718737782.846223,-2.0,0.0,-0.010043316,-0.010038434
1718737782.8474,-2.0,0.0,-0.010050268,-0.007271329
1718737782.848482,-2.0,0.0,-0.010054558,-0.004458814
1718737782.849094,-2.0,0.0,-0.010056144,-0.001703836
1718737782.850249,-2.0,0.0,-0.010052207,0.001866099
1718737782.851382,-2.0,0.0,-0.01003097,0.023583181
1718737782.85263,-2.0,0.0,-0.010005261,0.032469301
1718737782.853291,-2.0,0.0,-0.00997727,0.037360088
1718737782.854485,-2.0,0.0,-0.009947526,0.040214054
1718737782.855089,-2.0,0.0,-0.009916378,0.041647834
1718737782.856201,-2.0,0.0,-0.009884246,0.041991319
1718737782.857342,-2.0,0.0,-0.009851645,0.041478506
1718737782.858567,-2.0,0.0,-0.009819145,0.040303555
1718737782.859179,-2.0,0.0,-0.009787315,0.03864109
1718737782.8603,-2.0,0.0,-0.009756667,0.036652605
1718737782.86144,-2.0,0.0,-0.009727612,0.034486936
1718737782.862364,-2.0,0.0,-0.009730944,0.032720427
1718737782.863497,-2.0,0.0,-0.009662038,0.015780333
1718737782.864628,-2.0,0.0,-0.009658381,0.001642244
1718737782.865209,-2.0,0.0,-0.009668976,-0.003924149
1718737782.866362,-2.0,0.0,-0.009684306,-0.006808989
1718737782.86751,-2.0,0.0,-0.009700833,-0.008122739
1718737782.868173,-2.0,0.0,-0.009716559,-0.008266051
1718737782.869294,-2.0,0.0,-0.009730214,-0.00748002
1718737782.870458,-2.0,0.0,-0.009740997,-0.005955881
1718737782.871574,-2.0,0.0,-0.009748447,-0.003866456
1718737782.872138,-2.0,0.0,-0.009752363,-0.001375435
1718737782.873284,-2.0,0.0,-0.009752737,0.001361611
1718737782.874401,-2.0,0.0,-0.009749707,0.004199389
1718737782.875555,-2.0,0.0,-0.009743515,0.007005977
1718737782.876139,-2.0,0.0,-0.00973448,0.00966581
1718737782.877288,-2.0,0.0,-0.00972297,0.012082068
1718737782.878428,-2.0,0.0,-0.009709384,0.014178246
1718737782.879039,-2.0,0.0,-0.009694139,0.015898847
1718737782.880157,-2.0,0.0,-0.009677649,0.017209228
1718737782.881298,-2.0,0.0,-0.009660325,0.018094658
1718737782.88244,-2.0,0.0,-0.009642553,0.018558716
1718737782.883691,-2.0,0.0,-0.009624696,0.018621151
1718737782.884298,-2.0,0.0,-0.009608458,0.019807855
1718737782.885447,-2.0,0.0,-0.009594837,0.012363051
1718737782.886629,-2.0,0.0,-0.00957534,0.012974728
1718737782.887267,-2.0,0.0,-0.009552689,0.01300577
1718737782.888429,-2.0,0.0,-0.009530009,0.01171752
1718737782.889572,-2.0,0.0,-0.009509608,0.009370764
1718737782.890751,-2.0,0.0,-0.009492975,0.006284189
1718737782.89135,-2.0,0.0,-0.009484876,-7.889e-06
1718737782.892503,-2.0,0.0,-0.009475544,0.003502293
1718737782.893637,-2.0,0.0,-0.009470217,-0.001972571
1718737782.894259,-2.0,0.0,-0.009468726,-0.006881828
1718737782.895395,-2.0,0.0,-0.009470898,-0.01041898
1718737782.896557,-2.0,0.0,-0.009476333,-0.01268716
1718737782.897146,-2.0,0.0,-0.009484379,-0.013853225
1718737782.898327,-2.0,0.0,-0.009494209,-0.014065622
1718737782.899433,-2.0,0.0,-0.009504919,-0.013458383
1718737782.900785,-2.0,0.0,-0.009515611,-0.012160412
1718737782.901228,-2.0,0.0,-0.009525466,-0.010300278
1718737782.902413,-2.0,0.0,-0.009533784,-0.008006838
1718737782.903555,-2.0,0.0,-0.009540022,-0.005407331
1718737782.904173,-2.0,0.0,-0.009543795,-0.002624274
1718737782.905335,-2.0,0.0,-0.009544884,0.000227929
1718737782.906458,-2.0,0.0,-0.009543221,0.003046127
1718737782.90764,-2.0,0.0,-0.009538869,0.005740985
1718737782.908203,-2.0,0.0,-0.009529125,0.009118193
1718737782.909346,-2.0,0.0,-0.009502579,0.030622548
1718737782.910499,-2.0,0.0,-0.009472041,0.039308919
1718737782.911647,-2.0,0.0,-0.009439639,0.043988323
1718737782.912219,-2.0,0.0,-0.009405836,0.046632314
1718737782.913357,-2.0,0.0,-0.009370919,0.047864884
1718737782.91452,-2.0,0.0,-0.009370014,0.048442633
1718737782.915668,-2.0,0.0,-0.009288602,0.032339234
1718737782.916245,-2.0,0.0,-0.009272312,0.018837888
1718737782.917387,-2.0,0.0,-0.009269627,0.013124024
1718737782.918582,-2.0,0.0,-0.009271428,0.009500705
1718737782.919146,-2.0,0.0,-0.009274725,0.006969006
1718737782.92029,-2.0,0.0,-0.009278055,0.005239042
1718737782.921408,-2.0,0.0,-0.009280602,0.004182727
1718737782.922554,-2.0,0.0,-0.00928191,0.003719757
1718737782.923158,-2.0,0.0,-0.009281742,0.003781808
1718737782.924339,-2.0,0.0,-0.009279985,0.004299657
1718737782.925434,-2.0,0.0,-0.009276606,0.005199403
1718737782.926293,2.0,0.0,-0.009276606,0.005199403
1718737782.926597,2.0,0.0,-0.009271609,0.006402709
1718737782.927172,2.0,0.0,-0.009265021,0.007828797
1718737782.928373,2.0,0.0,-0.009256884,0.009397098
1718737782.929496,2.0,0.0,-0.009247253,0.011029997
1718737782.930647,2.0,0.0,-0.009236195,0.012655356
1718737782.931228,2.0,0.0,-0.009223797,0.014208661
1718737782.932378,2.0,0.0,-0.009210165,0.015634674
1718737782.933555,2.0,0.0,-0.009195429,0.016888591
1718737782.934128,2.0,0.0,-0.009179737,0.017936661
1718737782.935265,2.0,0.0,-0.009165085,0.020076459
1718737782.93642,2.0,0.0,-0.009151832,0.013652162
1718737782.937565,2.0,0.0,-0.009131197,0.015467514
1718737782.938191,2.0,0.0,-0.009105964,0.016710507
1718737782.939345,2.0,0.0,-0.009083425,0.014390503
1718737782.940453,2.0,0.0,-0.009055884,0.020730208
1718737782.941602,2.0,0.0,-0.009029895,0.016978632
1718737782.942187,2.0,0.0,-0.009006635,0.013006748
1718737782.943327,2.0,0.0,-0.00898704,0.009767954
1718737782.944479,2.0,0.0,-0.008971543,0.007244501
1718737782.945072,2.0,0.0,-0.008960073,0.005344901
1718737782.946223,2.0,0.0,-0.008952187,0.003997522
1718737782.947371,2.0,0.0,-0.008947209,0.003148131
1718737782.948519,2.0,0.0,-0.008944347,0.002749044
1718737782.949117,2.0,0.0,-0.008942793,0.002751813
1718737782.950254,2.0,0.0,-0.008941788,0.00310396
1718737782.951405,2.0,0.0,-0.008940675,0.003748502
1718737782.952567,2.0,0.0,-0.008938921,0.004625085
1718737782.953729,2.0,0.0,-0.00893613,0.005671912
1718737782.954328,2.0,0.0,-0.008932043,0.006827924
1718737782.955478,2.0,0.0,-0.008926523,0.008034936
1718737782.956628,2.0,0.0,-0.008919542,0.009239511
1718737782.957327,2.0,0.0,-0.008911159,0.010394505
1718737782.958446,2.0,0.0,-0.008901498,0.01146019
1718737782.95958,2.0,0.0,-0.008890728,0.012404988
1718737782.960718,2.0,0.0,-0.00887905,0.013205782
1718737782.961315,2.0,0.0,-0.008866671,0.013847874
1718737782.962472,2.0,0.0,-0.008853803,0.014324606
1718737782.963583,2.0,0.0,-0.008840645,0.014636712
1718737782.964152,2.0,0.0,-0.008824133,0.015746455
1718737782.965317,2.0,0.0,-0.008793711,0.035137199
1718737782.96649,2.0,0.0,-0.008791282,0.042205784
1718737782.96782,2.0,0.0,-0.008713208,0.030092191
1718737782.96841,2.0,0.0,-0.008700367,0.019807901
1718737782.969554,2.0,0.0,-0.008700357,0.016033052
1718737782.970162,2.0,0.0,-0.008703609,0.013699465
1718737782.971294,2.0,0.0,-0.008706912,0.011972299
1718737782.972446,2.0,0.0,-0.008708798,0.010635175
1718737782.973596,2.0,0.0,-0.008708643,0.009609852
1718737782.974228,2.0,0.0,-0.008706317,0.008860942
1718737782.975344,2.0,0.0,-0.008701988,0.008366388
1718737782.976511,2.0,0.0,-0.008695968,0.008106086
1718737782.977708,2.0,0.0,-0.00868862,0.008057534
1718737782.978261,2.0,0.0,-0.008680286,0.008194604
1718737782.979432,2.0,0.0,-0.00867125,0.008487787
1718737782.980544,2.0,0.0,-0.008661723,0.008905116
1718737782.98114,2.0,0.0,-0.008651842,0.009413382
1718737782.982274,2.0,0.0,-0.008641682,0.009979416
1718737782.983416,2.0,0.0,-0.00863127,0.010571318
1718737782.984558,2.0,0.0,-0.008620601,0.011159552
1718737782.985808,2.0,0.0,-0.008609656,0.011717858
1718737782.986395,2.0,0.0,-0.008598414,0.012223943
1718737782.987587,2.0,0.0,-0.00858686,0.01265996
1718737782.988154,2.0,0.0,-0.008574995,0.013012753
1718737782.989276,2.0,0.0,-0.008562834,0.013273893
1718737782.990422,2.0,0.0,-0.008554555,0.011784743
1718737782.991595,2.0,0.0,-0.008540111,0.019723596
1718737782.992177,2.0,0.0,-0.00852383,0.018241742
1718737782.993324,2.0,0.0,-0.008507603,0.018613281
1718737782.994478,2.0,0.0,-0.008491829,0.011574872
1718737782.995631,2.0,0.0,-0.008468301,0.013818944
1718737782.996228,2.0,0.0,-0.008440078,0.016372531
1718737782.997359,2.0,0.0,-0.008410363,0.018207183
1718737782.998518,2.0,0.0,-0.008381335,0.019360237
1718737782.999663,2.0,0.0,-0.008354259,0.019959411
1718737783.00028,2.0,0.0,-0.008329728,0.020110881
1718737783.001398,2.0,0.0,-0.008307891,0.019896492
1718737783.002607,2.0,0.0,-0.008288623,0.01938302
1718737783.003232,2.0,0.0,-0.00827165,0.018629355
1718737783.004348,2.0,0.0,-0.008256638,0.017690361
1718737783.005513,2.0,0.0,-0.00824325,0.016618329
1718737783.006152,2.0,0.0,-0.008231177,0.015463031
1718737783.007292,2.0,0.0,-0.008220161,0.014271063
1718737783.008435,2.0,0.0,-0.008209998,0.013084945
1718737783.009578,2.0,0.0,-0.008200532,0.011942218
1718737783.010223,2.0,0.0,-0.008191649,0.0108747
1718737783.01134,2.0,0.0,-0.008183265,0.009907972
1718737783.01248,2.0,0.0,-0.008175312,0.00906112
1718737783.013633,2.0,0.0,-0.008167734,0.008346735
1718737783.014236,2.0,0.0,-0.008160475,0.007771165
1718737783.015384,2.0,0.0,-0.008153476,0.007334972
1718737783.016527,2.0,0.0,-0.008146674,0.007033567
1718737783.017114,2.0,0.0,-0.008140005,0.006857977
1718737783.018255,2.0,0.0,-0.008133399,0.006795705
1718737783.019402,2.0,0.0,-0.008161616,0.008200498
1718737783.020574,2.0,0.0,-0.008086555,0.011846213
1718737783.02171,2.0,0.0,-0.008079798,0.007714613
1718737783.022299,2.0,0.0,-0.008086659,0.007304132
1718737783.023443,2.0,0.0,-0.008096719,0.007441504
1718737783.024582,2.0,0.0,-0.008106125,0.007692438
1718737783.02518,2.0,0.0,-0.008112947,0.007966701
1718737783.026232,2.0,0.0,-0.008112947,0.007966701
1718737783.026323,2.0,0.0,-0.008116297,0.008232399
1718737783.027474,2.0,0.0,-0.008115982,0.008473497
1718737783.028624,2.0,0.0,-0.00811227,0.008680948
1718737783.029215,2.0,0.0,-0.008105702,0.008850099
1718737783.030365,2.0,0.0,-0.008096945,0.008979654
1718737783.031515,2.0,0.0,-0.008086675,0.009071034
1718737783.032671,2.0,0.0,-0.008075509,0.009127843
1718737783.033264,2.0,0.0,-0.008063956,0.009155361
1718737783.034408,2.0,0.0,-0.008052401,0.009160053
1718737783.03555,2.0,0.0,-0.008041105,0.009149113
1718737783.036158,2.0,0.0,-0.008030215,0.009130049
1718737783.037332,2.0,0.0,-0.00801979,0.009110325
1718737783.038482,2.0,0.0,-0.008009815,0.009097053
1718737783.039626,2.0,0.0,-0.008000229,0.009096748
1718737783.040215,2.0,0.0,-0.007990939,0.009115134
1718737783.041365,2.0,0.0,-0.007981839,0.009157011
1718737783.042552,2.0,0.0,-0.007972822,0.009226163
1718737783.043682,2.0,0.0,-0.007963786,0.009325317
1718737783.044279,2.0,0.0,-0.007954644,0.009456146
1718737783.045412,2.0,0.0,-0.00794532,0.009619299
1718737783.046551,2.0,0.0,-0.007935757,0.00981447
1718737783.047143,2.0,0.0,-0.007930126,0.008017903
1718737783.048294,2.0,0.0,-0.007918459,0.015886354
1718737783.04947,2.0,0.0,-0.007904686,0.01468107
1718737783.050613,2.0,0.0,-0.007889014,0.013855141
1718737783.051218,2.0,0.0,-0.007872109,0.014188129
1718737783.052371,2.0,0.0,-0.007854491,0.01548121
1718737783.053505,2.0,0.0,-0.00783639,0.01747896
1718737783.054652,2.0,0.0,-0.007819059,0.021925631
1718737783.05525,2.0,0.0,-0.007801903,0.018073017
1718737783.056393,2.0,0.0,-0.007776238,0.022564525
1718737783.057537,2.0,0.0,-0.007744691,0.026728866
1718737783.058697,2.0,0.0,-0.00771028,0.029643536
1718737783.059289,2.0,0.0,-0.007675241,0.031417083
1718737783.060439,2.0,0.0,-0.007641065,0.032233347
1718737783.061573,2.0,0.0,-0.007608678,0.032250891
1718737783.062155,2.0,0.0,-0.007578605,0.031604948
1718737783.063297,2.0,0.0,-0.007551097,0.030417756
1718737783.064452,2.0,0.0,-0.007526218,0.028804964
1718737783.065577,2.0,0.0,-0.007503915,0.026877901
1718737783.066172,2.0,0.0,-0.007484065,0.024743209
1718737783.067302,2.0,0.0,-0.007466499,0.022501152
1718737783.068441,2.0,0.0,-0.007451028,0.02024346
1718737783.069582,2.0,0.0,-0.00743745,0.018051269
1718737783.070169,2.0,0.0,-0.007425558,0.015993429
1718737783.07132,2.0,0.0,-0.007415143,0.014125347
1718737783.072445,2.0,0.0,-0.00745197,0.012662224
1718737783.073578,2.0,0.0,-0.007385096,-0.004674554
1718737783.074178,2.0,0.0,-0.007394527,-0.016524138
1718737783.07531,2.0,0.0,-0.007419044,-0.021039977
1718737783.076438,2.0,0.0,-0.007443779,-0.022169689
1718737783.077579,2.0,0.0,-0.007455738,-0.003191633
1718737783.078169,2.0,0.0,-0.007465256,0.00414541
1718737783.079305,2.0,0.0,-0.007472329,0.00843881
1718737783.080448,2.0,0.0,-0.007475898,0.011534299
1718737783.081584,2.0,0.0,-0.007475277,0.013893795
1718737783.082173,2.0,0.0,-0.007470313,0.015687975
1718737783.08332,2.0,0.0,-0.007461308,0.01699383
1718737783.084451,2.0,0.0,-0.007448889,0.017855308
1718737783.085594,2.0,0.0,-0.007433864,0.018308047
1718737783.086186,2.0,0.0,-0.007417102,0.018389742
1718737783.087336,2.0,0.0,-0.007399437,0.018143717
1718737783.08847,2.0,0.0,-0.007381605,0.017619197
1718737783.089612,2.0,0.0,-0.007364203,0.016869983
1718737783.090228,2.0,0.0,-0.00734768,0.015952441
1718737783.091346,2.0,0.0,-0.007332332,0.0149233
1718737783.092471,2.0,0.0,-0.007318316,0.01383752
1718737783.093611,2.0,0.0,-0.007305674,0.012746401
1718737783.094172,2.0,0.0,-0.007294352,0.011696011
1718737783.095296,2.0,0.0,-0.007284226,0.010725982
1718737783.096428,2.0,0.0,-0.007275124,0.009868676
1718737783.097576,2.0,0.0,-0.007266842,0.009148734
1718737783.098151,2.0,0.0,-0.007259167,0.00858297
1718737783.099295,2.0,0.0,-0.007251885,0.008180578
1718737783.100423,2.0,0.0,-0.007244792,0.007943616
1718737783.101558,2.0,0.0,-0.007237703,0.007867712
1718737783.102163,2.0,0.0,-0.007230456,0.00794294
1718737783.103303,2.0,0.0,-0.007222911,0.008154815
1718737783.104549,2.0,0.0,-0.007219363,0.006523782
1718737783.105184,2.0,0.0,-0.007209977,0.014493676
1718737783.106335,2.0,0.0,-0.007197846,0.013550936
1718737783.107478,2.0,0.0,-0.00718324,0.012988638
1718737783.10861,2.0,0.0,-0.007167033,0.013591441
1718737783.109189,2.0,0.0,-0.007151506,0.01713286
1718737783.110319,2.0,0.0,-0.007135587,0.012814743
1718737783.111452,2.0,0.0,-0.007111196,0.01700369
1718737783.112586,2.0,0.0,-0.007081345,0.021128584
1718737783.113168,2.0,0.0,-0.007049204,0.024220323
1718737783.114325,2.0,0.0,-0.007016991,0.026344046
1718737783.115453,2.0,0.0,-0.006986068,0.027644213
1718737783.116595,2.0,0.0,-0.006957178,0.028242994
1718737783.117192,2.0,0.0,-0.006930641,0.028241767
1718737783.118338,2.0,0.0,-0.006906516,0.027731568
1718737783.119517,2.0,0.0,-0.006884707,0.026799877
1718737783.121377,2.0,0.0,-0.00686504,0.025533376
1718737783.122051,2.0,0.0,-0.006847313,0.024017995
1718737783.12251,2.0,0.0,-0.006831326,0.022337508
1718737783.123787,2.0,0.0,-0.006816898,0.020571509
1718737783.124337,2.0,0.0,-0.006803868,0.018793305
1718737783.125574,2.0,0.0,-0.006792095,0.017068032
1718737783.126286,-2.0,0.0,-0.006792095,0.017068032
1718737783.126782,-2.0,0.0,-0.00678145,0.015451161
1718737783.127528,-2.0,0.0,-0.006771811,0.013987473
1718737783.128755,-2.0,0.0,-0.006763056,0.012710538
1718737783.129392,-2.0,0.0,-0.006755059,0.011642668
1718737783.130561,-2.0,0.0,-0.006794571,0.010911301
1718737783.131737,-2.0,0.0,-0.006721302,-0.005916056
1718737783.132352,-2.0,0.0,-0.006726246,-0.015746352
1718737783.133526,-2.0,0.0,-0.006735278,-0.000345116
1718737783.134732,-2.0,0.0,-0.006748324,0.004971326
1718737783.135341,-2.0,0.0,-0.006762107,0.007875952
1718737783.136535,-2.0,0.0,-0.006773856,0.009979463
1718737783.137792,-2.0,0.0,-0.006781794,0.011649018
1718737783.138356,-2.0,0.0,-0.006785051,0.013006775
1718737783.139538,-2.0,0.0,-0.006783486,0.014097756
1718737783.140751,-2.0,0.0,-0.006777488,0.014938761
1718737783.141369,-2.0,0.0,-0.006767777,0.015538478
1718737783.142559,-2.0,0.0,-0.006755235,0.015906413
1718737783.143743,-2.0,0.0,-0.006740771,0.016056501
1718737783.144361,-2.0,0.0,-0.006725227,0.016008068
1718737783.145526,-2.0,0.0,-0.00670932,0.015785441
1718737783.146714,-2.0,0.0,-0.006693609,0.015416889
1718737783.147332,-2.0,0.0,-0.006678495,0.014933297
1718737783.148511,-2.0,0.0,-0.006664229,0.014366759
1718737783.149699,-2.0,0.0,-0.006650932,0.013749233
1718737783.150311,-2.0,0.0,-0.00663862,0.01311133
1718737783.151527,-2.0,0.0,-0.00662723,0.012481284
1718737783.152661,-2.0,0.0,-0.006616648,0.011884123
1718737783.153267,-2.0,0.0,-0.006606724,0.011341056
1718737783.154456,-2.0,0.0,-0.006597295,0.010869082
